time(millisecond),datetime(utc),latitude,longitude,height_above_takeoff(meters),height_above_ground_at_drone_location(meters),ground_elevation_at_drone_location(meters),altitude_above_seaLevel(meters),height_sonar(meters),speed(m/s),distance(meters),mileage(meters),satellites,gpslevel,voltage(v),max_altitude(meters),max_ascent(meters),max_speed(m/s),max_distance(meters), xSpeed(m/s), ySpeed(m/s), zSpeed(m/s), compass_heading(degrees), pitch(degrees), roll(degrees),isPhoto,isVideo,rc_elevator,rc_aileron,rc_throttle,rc_rudder,rc_elevator(percent),rc_aileron(percent),rc_throttle(percent),rc_rudder(percent),gimbal_heading(degrees),gimbal_pitch(degrees),gimbal_roll(degrees),battery_percent,voltageCell1,voltageCell2,voltageCell3,voltageCell4,voltageCell5,voltageCell6,current(A),battery_temperature(c),altitude(meters),ascent(meters),flycStateRaw,flycState,message
0,2026-01-27 15:27:14,60.1304596,24.5154963,0.545,0.545,16.1022892,16.6472892,0,0.0210238,0,0,23,87,0,16.6472892,0.545,0.0210238,0,0,0,0.1,214.9, 0, -0.2,0,0,1024,1024,1689,1024,0,0,100,0,216.83,0,0,61,,,,,,,0,17.6,16.6472892,0.545,6,P-GPS,
200,2026-01-27 15:27:14,60.1304596,24.5154962,0.794,0.794,16.1022892,16.8962892,0,0.0354683,0.00553836,0.00553836,23,87,0,16.8962892,0.794,0.0354683,0.00553836,0,0,0.1,214.9, 0.7, -0.3,0,0,1024,1024,1689,1024,0,0,100,0,216.58,0,0,61,,,,,,,0,17.6,16.8962892,0.794,6,P-GPS,
400,2026-01-27 15:27:14,60.1304596,24.515496,1.091,1.091,16.1022892,17.1932892,0,0.0126491,0.0166151,0.0166151,23,87,0,17.1932892,1.091,0.0354683,0.0166151,0,0,0.2,215, 0.9, -0.6,0,0,1024,1024,1689,1024,0,0,100,0,216.58,0,0,61,,,,,,,0,17.6,17.1932892,1.091,6,P-GPS,
600,2026-01-27 15:27:15,60.1304596,24.5154961,1.461,1.461,16.1022892,17.5632892,0,0.0494975,0.0110767,0.0221534,23,86,0,17.5632892,1.461,0.0494975,0.0166151,0,0,0.2,214.9, 0.1, -0.2,0,0,1024,1024,1689,1024,0,0,100,0,216.58,0,0,61,,,,,,,0,17.6,17.5632892,1.461,6,P-GPS,
800,2026-01-27 15:27:15,60.1304597,24.5154962,1.958,1.958,16.1022892,18.0602892,0,0.0467547,0.0124234,0.0345769,23,86,0,18.0602892,1.958,0.0494975,0.0166151,0,0,0.3,215, -0.8, -0.3,0,0,1024,1024,1689,1024,0,0,100,0,216.58,0,0,61,,,,,,,0,17.6,18.0602892,1.958,6,P-GPS,
1000,2026-01-27 15:27:15,60.1304597,24.5154963,2.643,2.643,16.1022892,18.7452892,0,0.0210238,0.0111206,0.0401152,23,95,14.673,18.7452892,2.643,0.0494975,0.0166151,0,0,0.4,215, -1.1, -0.1,0,0,1024,1024,1689,1024,0,0,100,0,216.58,0,0,61,,,,,,,15.308,17.6,18.7452892,2.643,6,P-GPS,
1200,2026-01-27 15:27:15,60.1304597,24.5154963,2.643,2.643,16.1022892,18.7452892,0,0.0210238,0.0111206,0.0401152,23,95,14.673,18.7452892,2.643,0.0494975,0.0166151,0,0,0.4,215, -1.1, -0.1,0,0,1024,1024,1689,1024,0,0,100,0,216.58,0,0,61,,,,,,,15.308,17.6,18.7452892,2.643,6,P-GPS,
1400,2026-01-27 15:27:15,60.1304597,24.5154961,4.542,4.542,16.1022892,20.6442892,0,0.0788923,0.0156959,0.051192,23,95,14.673,20.6442892,4.542,0.0788923,0.0166151,0,0,0.6,214.9, 0.2, -0.3,0,0,1024,1024,1689,1024,0,0,100,0,216.58,0,0,61,,,,,,,15.308,17.6,20.6442892,4.542,6,P-GPS,
1600,2026-01-27 15:27:16,60.1304596,24.5154958,5.657,5.657,16.1022892,21.7592892,0,0.0801311,0.0276918,0.0711852,23,97,14.673,21.7592892,5.657,0.0801311,0.0276918,0,0,0.6,215, 1, -1.3,0,0,1024,1024,1689,1024,0,0,100,0,216.58,0,0,61,,,,,,,15.308,17.6,21.7592892,5.657,6,P-GPS,
1800,2026-01-27 15:27:16,60.1304596,24.5154958,5.657,5.657,16.1022892,21.7592892,0,0.0801311,0.0276918,0.0711852,23,97,14.673,21.7592892,5.657,0.0801311,0.0276918,0,0,0.6,215, 1, -1.3,0,0,1024,1024,1689,1024,0,0,100,0,216.58,0,0,61,,,,,,,15.308,17.6,21.7592892,5.657,6,P-GPS,
2000,2026-01-27 15:27:16,60.1304595,24.5154954,7.975,7.975,16.1022892,24.0772892,0,0.0331059,0.0510707,0.0959731,23,95,14.535,24.0772892,7.975,0.0801311,0.0510707,0,0,0.6,215, 2.2, -1.3,0,0,1024,1024,1689,1024,0,0,100,0,216.58,0,0,61,,,,,,,21.086,17.6,24.0772892,7.975,6,P-GPS,
2200,2026-01-27 15:27:16,60.1304595,24.5154955,9.138,9.138,16.1022892,25.2402892,0,0.01,0.0456812,0.101512,23,95,14.535,25.2402892,9.138,0.0801311,0.0510707,0,0,0.6,214.9, 2, -1.3,0,0,1024,1024,1689,1024,0,0,100,0,216.58,0,0,61,,,,,,,21.086,17.6,25.2402892,9.138,6,P-GPS,
2400,2026-01-27 15:27:16,60.1304594,24.5154957,10.294,10.294,16.1022892,26.3962892,0,0.0151327,0.0399865,0.117207,23,95,14.535,26.3962892,10.294,0.0801311,0.0510707,0,0,0.6,215, 1.8, -0.8,0,0,1024,1024,1621,1024,0,0,90,0,216.58,0,0,61,,,,,,,21.086,17.6,26.3962892,10.294,6,P-GPS,
2600,2026-01-27 15:27:17,60.1304594,24.5154957,11.441,11.441,16.1022892,27.5432892,0,0.0164012,0.0399865,0.117207,25,95,14.535,27.5432892,11.441,0.0801311,0.0510707,0,0,0.6,215.1, 1.8, -1,0,0,1024,1024,1689,1024,0,0,100,0,216.58,0,0,61,,,,,,,21.086,17.6,27.5432892,11.441,6,P-GPS,
2800,2026-01-27 15:27:17,60.1304594,24.5154956,12.565,12.565,16.1022892,28.6672892,0,0.0447214,0.0446953,0.122746,25,95,14.535,28.6672892,12.565,0.0801311,0.0510707,0,0,0.5,214.9, 2.7, -1.2,0,0,1024,1024,1689,1024,0,0,100,0,216.58,0,0,61,,,,,,,21.086,17.6,28.6672892,12.565,6,P-GPS,
3000,2026-01-27 15:27:17,60.1304593,24.5154954,13.666,13.666,16.1022892,29.7682892,0,0.0444185,0.0599797,0.138442,25,97,14.762,29.7682892,13.666,0.0801311,0.0599797,0,0,0.6,215.1, 3.5, -2,0,0,1024,1024,1689,1024,0,0,100,0,216.58,0,0,61,,,,,,,27.06,17.6,29.7682892,13.666,6,P-GPS,
3200,2026-01-27 15:27:17,60.1304593,24.5154953,14.774,14.774,16.1022892,30.8762892,0,0.0128062,0.0646557,0.14398,25,97,14.762,30.8762892,14.774,0.0801311,0.0646557,0,0,0.5,215, 4.3, -2.2,0,0,1024,1024,1024,1024,0,0,0,0,216.58,0,0,61,,,,,,,27.06,17.6,30.8762892,14.774,6,P-GPS,
3400,2026-01-27 15:27:17,60.1304593,24.5154955,15.843,15.843,16.1022892,31.9452892,0,0.0152643,0.0554627,0.155057,25,97,14.762,31.9452892,15.843,0.0801311,0.0646557,0,0,0.5,215, 3.6, -1.6,0,0,1024,1024,1024,1024,0,0,0,0,216.58,0,0,61,,,,,,,27.06,17.6,31.9452892,15.843,6,P-GPS,
3600,2026-01-27 15:27:18,60.1304593,24.5154957,16.743,16.743,16.1022892,32.8452892,0,0.017,0.0470877,0.166134,25,98,14.762,32.8452892,16.743,0.0801311,0.0646557,0,0,0.4,215.1, 2.9, -0.9,0,0,1024,1024,1024,1024,0,0,0,0,216.58,0,0,61,,,,,,,27.06,17.6,32.8452892,16.743,6,P-GPS,
3800,2026-01-27 15:27:18,60.1304593,24.5154957,16.743,16.743,16.1022892,32.8452892,0,0.017,0.0470877,0.166134,25,98,14.762,32.8452892,16.743,0.0801311,0.0646557,0,0,0.4,215.1, 2.9, -0.9,0,0,1024,1024,1024,1024,0,0,0,0,216.58,0,0,61,,,,,,,27.06,17.6,32.8452892,16.743,6,P-GPS,
4000,2026-01-27 15:27:18,60.1304593,24.5154957,17.457,17.457,16.1022892,33.5592892,0,0.0144222,0.0470877,0.166134,25,98,14.671,33.5592892,17.457,0.0801311,0.0646557,0,0,0.3,215, 2.8, -0.6,0,0,1024,1024,1024,1024,0,0,0,0,216.58,0,0,61,,,,,,,22.79,17.7,33.5592892,17.457,6,P-GPS,
4200,2026-01-27 15:27:18,60.1304593,24.5154956,17.984,17.984,16.1022892,34.0862892,0,0.0235372,0.051147,0.171672,25,98,14.671,34.0862892,17.984,0.0801311,0.0646557,0,0,0.2,215, 3, -0.9,0,0,1024,1024,1024,1024,0,0,0,0,216.58,0,0,61,,,,,,,22.79,17.7,34.0862892,17.984,6,P-GPS,
4400,2026-01-27 15:27:18,60.1304593,24.5154955,18.502,18.502,16.1022892,34.6042892,0,0.0193132,0.0554627,0.17721,25,98,14.671,34.6042892,18.502,0.0801311,0.0646557,0,0,0,215.1, 2.8, -1,0,0,1024,1024,1024,1297,0,0,0,41,216.05,0,0,61,,,,,,,22.79,17.7,34.6042892,18.502,6,P-GPS,
4600,2026-01-27 15:27:19,60.1304593,24.5154955,18.502,18.502,16.1022892,34.6042892,0,0.0193132,0.0554627,0.17721,25,96,14.671,34.6042892,18.502,0.0801311,0.0646557,0,0,0,215.1, 2.8, -1,0,0,1024,1024,1024,1455,0,0,0,65,216.05,0,0,61,,,,,,,22.79,17.7,34.6042892,18.502,6,P-GPS,
4800,2026-01-27 15:27:19,60.1304593,24.5154955,18.546,18.546,16.1022892,34.6482892,0,0.0108167,0.0554627,0.17721,25,96,14.671,34.6482892,18.546,0.0801311,0.0646557,0,0,0,216.5, 2.4, -1,0,0,1024,1024,1024,1572,0,0,0,83,216.39,0,0,61,,,,,,,22.79,17.7,34.6482892,18.546,6,P-GPS,
5000,2026-01-27 15:27:19,60.1304593,24.5154956,18.557,18.557,16.1022892,34.6592892,0,0.00223607,0.051147,0.182749,25,96,14.93,34.6592892,18.557,0.0801311,0.0646557,0,0,0,219.9, 2.5, -0.8,0,0,1024,1024,1024,1636,0,0,0,93,219.2,0,0,61,,,,,,,14.622,17.8,34.6592892,18.557,6,P-GPS,
5200,2026-01-27 15:27:19,60.1304593,24.5154956,18.561,18.561,16.1022892,34.6632892,0,0.026,0.051147,0.182749,25,96,14.93,34.6632892,18.561,0.0801311,0.0646557,0,0,0,225.7, 2.7, -0.6,0,0,1024,1024,1024,1635,0,0,0,93,224.21,0,0,61,,,,,,,14.622,17.8,34.6632892,18.561,6,P-GPS,
5400,2026-01-27 15:27:19,60.1304594,24.5154958,18.564,18.564,16.1022892,34.6662892,0,0.0485489,0.0355177,0.198445,25,96,14.93,34.6662892,18.564,0.0801311,0.0646557,0,0,0,233.5, 2.4, -0.7,0,0,1024,1024,1024,1526,0,0,0,76,232.26,0,0,61,,,,,,,14.622,17.8,34.6662892,18.564,6,P-GPS,
5600,2026-01-27 15:27:20,60.1304594,24.5154961,18.567,18.567,16.1022892,34.6692892,0,0.0600333,0.0248468,0.21506,25,97,14.93,34.6692892,18.567,0.0801311,0.0646557,0,0,0,242.7, 1.6, 0.2,0,0,1024,1024,1024,1241,0,0,0,33,241.2,0,0,61,,,,,,,14.622,17.8,34.6692892,18.567,6,P-GPS,
5800,2026-01-27 15:27:20,60.1304594,24.5154962,18.57,18.57,16.1022892,34.6722892,0,0.0392173,0.0229204,0.220598,25,97,14.93,34.6722892,18.57,0.0801311,0.0646557,0,0,0,251.4, 1.1, 1.1,0,0,1024,1024,1024,1024,0,0,0,0,250.4,0,0,61,,,,,,,14.622,17.8,34.6722892,18.57,6,P-GPS,
6000,2026-01-27 15:27:20,60.1304594,24.5154963,18.572,18.572,16.1022892,34.6742892,0,0.00984886,0.0222412,0.226136,25,97,15.07,34.6742892,18.572,0.0801311,0.0646557,0,0,0,254.7, 1.2, 1.7,0,0,1024,1024,1024,1024,0,0,0,0,254.35,0,0,61,,,,,,,10.648,17.8,34.6742892,18.572,6,P-GPS,
6200,2026-01-27 15:27:20,60.1304594,24.5154963,18.572,18.572,16.1022892,34.6742892,0,0.0220227,0.0222412,0.226136,25,97,15.07,34.6742892,18.572,0.0801311,0.0646557,0,0,0,255.1, 1.6, 1.7,0,0,1024,1024,1024,1024,0,0,0,0,255.13,0,0,61,,,,,,,10.648,17.8,34.6742892,18.572,6,P-GPS,
6400,2026-01-27 15:27:20,60.1304593,24.5154963,18.572,18.572,16.1022892,34.6742892,0,0.0344819,0.0333618,0.237257,25,97,15.07,34.6742892,18.572,0.0801311,0.0646557,0,0,0,255.3, 2.4, 2.4,0,0,1024,1024,1024,1024,0,0,0,0,255.33,0,0,61,,,,,,,10.648,17.8,34.6742892,18.572,6,P-GPS,
6600,2026-01-27 15:27:21,60.1304592,24.5154963,18.572,18.572,16.1022892,34.6742892,0,0.00806226,0.0444824,0.248378,25,98,15.07,34.6742892,18.572,0.0801311,0.0646557,0,0,0,255.4, 2.4, 2.7,0,0,1024,1024,1024,1024,0,0,0,0,255.37,0,0,61,,,,,,,10.648,17.8,34.6742892,18.572,6,P-GPS,
6800,2026-01-27 15:27:21,60.1304593,24.5154964,18.569,18.569,16.1022892,34.6712892,0,0.0237697,0.0338184,0.260801,25,98,15.07,34.6742892,18.572,0.0801311,0.0646557,0,0,0,255.4, 2, 2.2,0,0,1024,1024,1024,1024,0,0,0,0,255.37,0,0,61,,,,,,,10.648,17.8,34.6712892,18.569,6,P-GPS,
7000,2026-01-27 15:27:21,60.1304594,24.5154964,18.567,18.567,16.1022892,34.6692892,0,0.0420119,0.0229204,0.271922,24,98,15.071,34.6742892,18.572,0.0801311,0.0646557,0,0,0,255.4, 1.6, 1.5,0,0,1024,1024,1024,1024,0,0,0,0,255.37,0,0,61,,,,,,,13.866,17.8,34.6692892,18.567,6,P-GPS,
7200,2026-01-27 15:27:21,60.1304596,24.5154964,18.563,18.563,16.1022892,34.6652892,0,0.0414367,0.00553836,0.294163,24,98,15.071,34.6742892,18.572,0.0801311,0.0646557,0,0,0,255.4, 1.6, 1,0,0,1024,1024,1024,1024,0,0,0,0,255.37,0,0,61,,,,,,,13.866,17.8,34.6652892,18.563,6,P-GPS,
7400,2026-01-27 15:27:21,60.1304596,24.5154963,18.562,18.562,16.1022892,34.6642892,0,0.0264008,0,0.299701,24,98,15.071,34.6742892,18.572,0.0801311,0.0646557,0,0,0,255.5, 1.8, 0.8,0,0,1024,1024,1024,1024,0,0,0,0,255.37,0,0,61,,,,,,,13.866,17.8,34.6642892,18.562,6,P-GPS,
7600,2026-01-27 15:27:22,60.1304596,24.5154963,18.559,18.559,16.1022892,34.6612892,0,0.0134164,0,0.299701,23,99,15.071,34.6742892,18.572,0.0801311,0.0646557,0,0,0,255.4, 1.9, 1,0,0,1024,1024,1024,1024,0,0,0,0,255.37,0,0,61,,,,,,,13.866,17.8,34.6612892,18.559,6,P-GPS,
7800,2026-01-27 15:27:22,60.1304596,24.5154963,18.558,18.558,16.1022892,34.6602892,0,0.0170294,0,0.299701,23,99,15.071,34.6742892,18.572,0.0801311,0.0646557,0,0,0,255.4, 2, 1.3,0,0,1024,1024,1024,1024,0,0,0,0,255.37,0,0,61,,,,,,,13.866,17.8,34.6602892,18.558,6,P-GPS,
8000,2026-01-27 15:27:22,60.1304596,24.5154962,18.558,18.558,16.1022892,34.6602892,0,0.0235372,0.00553836,0.305239,24,99,15.091,34.6742892,18.572,0.0801311,0.0646557,0,0,0,255.4, 2.4, 1.6,0,0,1024,1024,1024,1024,0,0,0,0,255.37,0,0,61,,,,,,,13.506,17.9,34.6602892,18.558,6,P-GPS,
8200,2026-01-27 15:27:22,60.1304595,24.5154961,18.559,18.559,16.1022892,34.6612892,0,0.0180278,0.0156959,0.317663,24,99,15.091,34.6742892,18.572,0.0801311,0.0646557,0,0,0,255.5, 2.6, 1.6,0,0,1024,1024,1024,1024,0,0,0,0,255.37,0,0,61,,,,,,,13.506,17.9,34.6612892,18.559,6,P-GPS,
8400,2026-01-27 15:27:22,60.1304595,24.5154961,18.558,18.558,16.1022892,34.6602892,0,0.0111803,0.0156959,0.317663,24,99,15.091,34.6742892,18.572,0.0801311,0.0646557,0,0,0,255.5, 2.5, 2.1,0,0,1024,1024,1024,1024,0,0,0,0,255.37,0,0,61,,,,,,,13.506,17.9,34.6602892,18.558,6,P-GPS,
8600,2026-01-27 15:27:23,60.1304594,24.5154962,18.558,18.558,16.1022892,34.6602892,0,0.00447214,0.0229204,0.330086,24,99,15.091,34.6742892,18.572,0.0801311,0.0646557,0,0,0,255.4, 2.2, 2.4,0,0,1024,1024,1024,1024,0,0,0,0,255.37,0,0,61,,,,,,,13.506,17.9,34.6602892,18.558,6,P-GPS,
8800,2026-01-27 15:27:23,60.1304594,24.5154963,18.557,18.557,16.1022892,34.6592892,0,0.00447214,0.0222412,0.335625,24,99,15.091,34.6742892,18.572,0.0801311,0.0646557,0,0,0,255.4, 2, 2.5,0,0,1024,1024,1024,1024,0,0,0,0,255.37,0,0,61,,,,,,,13.506,17.9,34.6592892,18.557,6,P-GPS,
9000,2026-01-27 15:27:23,60.1304593,24.5154964,18.556,18.556,16.1022892,34.6582892,0,0.00707107,0.0338184,0.348048,24,99,14.868,34.6742892,18.572,0.0801311,0.0646557,0,0,0,255.4, 1.7, 2.5,0,0,1024,1024,1024,1024,0,0,0,0,255.37,0,0,61,,,,,,,13.51,17.9,34.6582892,18.556,6,P-GPS,
9200,2026-01-27 15:27:23,60.1304594,24.5154965,18.555,18.555,16.1022892,34.6572892,0,0.0100499,0.0248468,0.360472,24,99,14.868,34.6742892,18.572,0.0801311,0.0646557,0,0,0,255.4, 1.6, 2.5,0,0,1024,1024,1024,1024,0,0,0,0,255.37,0,0,61,,,,,,,13.51,17.9,34.6572892,18.555,6,P-GPS,
9400,2026-01-27 15:27:23,60.1304594,24.5154966,18.555,18.555,16.1022892,34.6572892,0,0.0104403,0.0277621,0.36601,24,99,14.868,34.6742892,18.572,0.0801311,0.0646557,0,0,0,255.4, 1.5, 2.3,0,0,1024,1024,1024,1024,0,0,0,0,255.37,0,0,61,,,,,,,13.51,17.9,34.6572892,18.555,6,P-GPS,
9600,2026-01-27 15:27:24,60.1304594,24.5154966,18.553,18.553,16.1022892,34.6552892,0,0.0106301,0.0277621,0.36601,24,99,14.868,34.6742892,18.572,0.0801311,0.0646557,0,0,0,255.4, 1.6, 2.2,0,0,1024,1024,1024,1024,0,0,0,0,255.37,0,0,61,,,,,,,13.51,17.9,34.6552892,18.553,6,P-GPS,
9800,2026-01-27 15:27:24,60.1304595,24.5154965,18.553,18.553,16.1022892,34.6552892,0,0.0223607,0.0156959,0.378433,24,99,14.868,34.6742892,18.572,0.0801311,0.0646557,0,0,0,255.4, 1.7, 2.3,0,0,1024,1024,1024,1024,0,0,0,0,255.37,0,0,61,,,,,,,13.51,17.9,34.6552892,18.553,6,P-GPS,
10000,2026-01-27 15:27:24,60.1304596,24.5154963,18.553,18.553,16.1022892,34.6552892,0,0.0327567,0,0.394129,24,99,14.91,34.6742892,18.572,0.0801311,0.0646557,0,0,0,255.5, 2, 1.9,0,0,1024,1024,1024,1024,0,0,0,0,255.37,0,0,61,,,,,,,13.666,18,34.6552892,18.553,6,P-GPS,
10200,2026-01-27 15:27:24,60.1304596,24.5154961,18.553,18.553,16.1022892,34.6552892,0,0.0224722,0.0110767,0.405206,24,99,14.91,34.6742892,18.572,0.0801311,0.0646557,0,0,0,255.5, 2.4, 1.5,0,0,1024,1024,1024,1024,0,0,0,0,255.37,0,0,61,,,,,,,13.666,18,34.6552892,18.553,6,P-GPS,
10400,2026-01-27 15:27:24,60.1304597,24.5154961,18.553,18.553,16.1022892,34.6552892,0,0.0113137,0.0156959,0.416327,24,99,14.91,34.6742892,18.572,0.0801311,0.0646557,0,0,0,255.5, 2.2, 1.6,0,0,1024,1024,1024,1024,0,0,0,0,255.37,0,0,61,,,,,,,13.666,18,34.6552892,18.553,6,P-GPS,
10600,2026-01-27 15:27:25,60.1304597,24.515496,18.554,18.554,16.1022892,34.6562892,0,0.0143178,0.0199932,0.421865,25,99,14.91,34.6742892,18.572,0.0801311,0.0646557,0,0,0,255.4, 1.9, 1.7,0,0,1024,1024,1024,1024,0,0,0,0,255.37,0,0,61,,,,,,,13.666,18,34.6562892,18.554,6,P-GPS,
10800,2026-01-27 15:27:25,60.1304597,24.515496,18.554,18.554,16.1022892,34.6562892,0,0.0170294,0.0199932,0.421865,25,99,14.91,34.6742892,18.572,0.0801311,0.0646557,0,0,0,255.5, 2.1, 1.6,0,0,1024,1024,1024,1024,0,0,0,0,255.37,0,0,61,,,,,,,13.666,18,34.6562892,18.554,6,P-GPS,
11000,2026-01-27 15:27:25,60.1304596,24.515496,18.551,18.551,16.1022892,34.6532892,0,0.010198,0.0166151,0.432986,25,99,15.078,34.6742892,18.572,0.0801311,0.0646557,0,0,0,255.5, 2.1, 1.9,0,0,1024,1024,1024,1024,0,0,0,0,255.37,0,0,61,,,,,,,13.58,18,34.6532892,18.551,6,P-GPS,
11200,2026-01-27 15:27:25,60.1304596,24.515496,18.549,18.549,16.1022892,34.6512892,0,0.00509902,0.0166151,0.432986,25,99,15.078,34.6742892,18.572,0.0801311,0.0646557,0,0,0,255.4, 2, 1.8,0,0,1024,1024,1024,1311,0,0,0,43,255.37,0,0,61,,,,,,,13.58,18,34.6512892,18.549,6,P-GPS,
11400,2026-01-27 15:27:25,60.1304596,24.5154961,18.547,18.547,16.1022892,34.6492892,0,0.00761577,0.0110767,0.438524,25,99,15.078,34.6742892,18.572,0.0801311,0.0646557,0,0,0,255.5, 1.8, 1.9,0,0,1024,1024,1024,1689,0,0,0,100,255.52,0,0,61,,,,,,,13.58,18,34.6492892,18.547,6,P-GPS,
11600,2026-01-27 15:27:26,60.1304595,24.5154963,18.545,18.545,16.1022892,34.6472892,0,0.00707107,0.0111206,0.45422,25,99,15.078,34.6742892,18.572,0.0801311,0.0646557,0,0,0,257.3, 1.4, 2.1,0,0,1024,1024,1024,1689,0,0,0,100,257.86,0,0,61,,,,,,,13.58,18,34.6472892,18.545,6,P-GPS,
11800,2026-01-27 15:27:26,60.1304594,24.5154963,18.545,18.545,16.1022892,34.6472892,0,0.0235372,0.0222412,0.46534,25,99,15.078,34.6742892,18.572,0.0801311,0.0646557,0,0,0,265.3, 1.5, 2.3,0,0,1024,1024,1024,1689,0,0,0,100,266.62,0,0,61,,,,,,,13.58,18,34.6472892,18.545,6,P-GPS,
12000,2026-01-27 15:27:26,60.1304594,24.5154964,18.542,18.542,16.1022892,34.6442892,0,0.0143178,0.0229204,0.470879,24,99,15.066,34.6742892,18.572,0.0801311,0.0646557,0,0,0,276.7, 1.3, 3,0,0,1024,1024,1024,1689,0,0,0,100,277.75,0,0,61,,,,,,,13.654,18,34.6442892,18.542,6,P-GPS,
12200,2026-01-27 15:27:26,60.1304596,24.5154965,18.539,18.539,16.1022892,34.6412892,0,0.0226716,0.0110767,0.493799,24,99,15.066,34.6742892,18.572,0.0801311,0.0646557,0,0,0,288.5, 0.8, 2.3,0,0,1024,1024,1024,1689,0,0,0,100,290.11,0,0,61,,,,,,,13.654,18,34.6412892,18.539,6,P-GPS,
12400,2026-01-27 15:27:26,60.1304596,24.5154966,18.537,18.537,16.1022892,34.6392892,0,0.0174642,0.0166151,0.499338,24,99,15.066,34.6742892,18.572,0.0801311,0.0646557,0,0,0,300.5, 0.2, 1.8,0,0,1024,1024,1024,1689,0,0,0,100,301.78,0,0,61,,,,,,,13.654,18,34.6392892,18.537,6,P-GPS,
12600,2026-01-27 15:27:27,60.1304595,24.5154967,18.537,18.537,16.1022892,34.6392892,0,0.0373631,0.024788,0.511761,25,98,15.066,34.6742892,18.572,0.0801311,0.0646557,0,0,0,312.4, -0.8, 2.3,0,0,1024,1024,1024,1689,0,0,0,100,314.24,0,0,61,,,,,,,13.654,18,34.6392892,18.537,6,P-GPS,
12800,2026-01-27 15:27:27,60.1304594,24.5154968,18.535,18.535,16.1022892,34.6372892,0,0.0400125,0.0355177,0.524184,25,98,15.066,34.6742892,18.572,0.0801311,0.0646557,0,0,0,324.2, -1.9, 2.8,0,0,1024,1024,1024,1689,0,0,0,100,326.73,0,0,61,,,,,,,13.654,18,34.6372892,18.535,6,P-GPS,
13000,2026-01-27 15:27:27,60.1304593,24.5154968,18.535,18.535,16.1022892,34.6372892,0,0.0231948,0.0433572,0.535305,25,98,15.097,34.6742892,18.572,0.0801311,0.0646557,0,0,0,335.9, -2.7, 2.6,0,0,1024,1024,1024,1689,0,0,0,100,333.31,0,0,61,,,,,,,13.888,18,34.6372892,18.535,6,P-GPS,
13200,2026-01-27 15:27:27,60.1304592,24.5154969,18.539,18.539,16.1022892,34.6412892,0,0.00806226,0.0555242,0.547728,26,99,15.097,34.6742892,18.572,0.0801311,0.0646557,0,0,0,348, -3.1, 1.8,0,0,1024,1024,1024,1689,0,0,0,100,345.29,0,0,61,,,,,,,13.888,18,34.6412892,18.539,6,P-GPS,
13400,2026-01-27 15:27:27,60.1304592,24.515497,18.546,18.546,16.1022892,34.6482892,0,0.00360555,0.0590058,0.553267,26,99,15.097,34.6742892,18.572,0.0801311,0.0646557,0,0,0,359.9, -3.3, 1,0,0,1024,1024,1024,1689,0,0,0,100,357.87,0,0,61,,,,,,,13.888,18,34.6482892,18.546,6,P-GPS,
13600,2026-01-27 15:27:28,60.1304591,24.5154971,18.552,18.552,16.1022892,34.6542892,0,0.00316228,0.0710971,0.56569,26,97,15.097,34.6742892,18.572,0.0801311,0.0710971,0,0,0,11.9, -3.4, 0,0,0,1024,1024,1024,1024,0,0,0,0,10.3,0,0,61,,,,,,,13.888,18,34.6542892,18.552,6,P-GPS,
13800,2026-01-27 15:27:28,60.130459,24.5154972,18.557,18.557,16.1022892,34.6592892,0,0.00538516,0.0832862,0.578114,26,97,15.097,34.6742892,18.572,0.0801311,0.0832862,0,0,0,21.2, -3.4, -0.8,0,0,1024,1024,1024,1024,0,0,0,0,19.7,0,0,61,,,,,,,13.888,18,34.6592892,18.557,6,P-GPS,
14000,2026-01-27 15:27:28,60.130459,24.5154973,18.563,18.563,16.1022892,34.6652892,0,0.00894427,0.0867144,0.583652,26,97,14.874,34.6742892,18.572,0.0801311,0.0867144,0,0,0,23.4, -3.5, -1.8,0,0,1024,1024,1024,1024,0,0,0,0,22.42,0.01,0,61,,,,,,,14.104,18,34.6652892,18.563,6,P-GPS,
14200,2026-01-27 15:27:28,60.1304591,24.5154971,18.568,18.568,16.1022892,34.6702892,0,0.0630317,0.0710971,0.599348,26,96,14.874,34.6742892,18.572,0.0801311,0.0867144,0,0,0,23.6, -3.4, -1.4,0,0,1024,1024,1024,1024,0,0,0,0,23.01,2.71,0,61,,,,,,,14.104,18,34.6702892,18.568,6,P-GPS,
14400,2026-01-27 15:27:28,60.1304592,24.5154968,18.568,18.568,16.1022892,34.6702892,0,0.0877268,0.0523977,0.619341,26,96,14.874,34.6742892,18.572,0.0877268,0.0867144,0,0,0,23.5, -2.8, 0.3,0,0,1024,1024,1024,1024,0,0,0,0,23.14,14.42,0,61,,,,,,,14.104,18,34.6702892,18.568,6,P-GPS,
14600,2026-01-27 15:27:29,60.1304593,24.5154967,18.567,18.567,16.1022892,34.6692892,0,0.0568243,0.0400473,0.631765,26,98,14.874,34.6742892,18.572,0.0877268,0.0867144,0,0,0,23.3, -2.4, 0.1,0,0,1024,1024,1024,1024,0,0,0,0,23.18,26.51,0,61,,,,,,,14.104,18,34.6692892,18.567,6,P-GPS,
14800,2026-01-27 15:27:29,60.1304594,24.5154966,18.568,18.568,16.1022892,34.6702892,0,0.0347131,0.0277621,0.644188,26,98,14.874,34.6742892,18.572,0.0877268,0.0867144,0,0,0,23.1, -2.3, -0.4,0,0,1024,1024,1024,1024,0,0,0,0,23.18,38.01,0,61,,,,,,,14.104,18,34.6702892,18.568,6,P-GPS,
15000,2026-01-27 15:27:29,60.1304594,24.5154965,18.566,18.566,16.1022892,34.6682892,0,0.0398246,0.0248468,0.649726,26,98,14.977,34.6742892,18.572,0.0877268,0.0867144,0,0,0,23.2, -2.6, -0.6,0,0,1024,1024,1024,1024,0,0,0,0,23.18,49.46,0,61,,,,,,,13.314,18,34.6682892,18.566,6,P-GPS,
15200,2026-01-27 15:27:29,60.1304594,24.5154964,18.564,18.564,16.1022892,34.6662892,0,0.0408044,0.0229204,0.655265,26,99,14.977,34.6742892,18.572,0.0877268,0.0867144,0,0,0,23.3, -2.8, -0.4,0,0,1024,1024,1024,1024,0,0,0,0,23.18,54.81,0,60,,,,,,,13.314,18,34.6662892,18.564,6,P-GPS,
15400,2026-01-27 15:27:29,60.1304594,24.5154963,18.56,18.56,16.1022892,34.6622892,0,0.0308058,0.0222412,0.660803,26,99,14.977,34.6742892,18.572,0.0877268,0.0867144,0,0,0,23.2, -3.1, -0.4,0,0,1024,1024,1024,1024,0,0,0,0,23.18,59.37,0,60,,,,,,,13.314,18,34.6622892,18.56,6,P-GPS,
15600,2026-01-27 15:27:30,60.1304593,24.5154962,18.557,18.557,16.1022892,34.6592892,0,0.0292746,0.0338184,0.673227,26,99,14.977,34.6742892,18.572,0.0877268,0.0867144,0,0,0,23.1, -3.5, -0.4,0,0,1024,1024,1024,1024,0,0,0,0,23.18,59.36,0,60,,,,,,,13.314,18,34.6592892,18.557,6,P-GPS,
15800,2026-01-27 15:27:30,60.1304593,24.5154962,18.552,18.552,16.1022892,34.6542892,0,0.0317805,0.0338184,0.673227,26,99,14.977,34.6742892,18.572,0.0877268,0.0867144,0,0,0,23.2, -3.7, -0.3,0,0,1024,1024,1024,1024,0,0,0,0,23.18,59.36,0,60,,,,,,,13.314,18,34.6542892,18.552,6,P-GPS,
16000,2026-01-27 15:27:30,60.1304593,24.5154961,18.547,18.547,16.1022892,34.6492892,0,0.0262488,0.0351526,0.678765,26,99,14.9,34.6742892,18.572,0.0877268,0.0867144,0,0,0,23.3, -3.5, -0.1,0,0,1024,1024,1024,1024,0,0,0,0,23.18,59.37,0,60,,,,,,,13.032,18,34.6492892,18.547,6,P-GPS,
16200,2026-01-27 15:27:30,60.1304593,24.5154962,18.544,18.544,16.1022892,34.6462892,0,0.0161555,0.0338184,0.684303,26,99,14.9,34.6742892,18.572,0.0877268,0.0867144,0,0,0,23.3, -3.3, -0.3,0,0,1024,1024,1024,1024,0,0,0,0,23.18,60.71,0,60,,,,,,,13.032,18,34.6462892,18.544,6,P-GPS,
16400,2026-01-27 15:27:30,60.1304593,24.5154962,18.542,18.542,16.1022892,34.6442892,0,0.0151327,0.0338184,0.684303,26,99,14.9,34.6742892,18.572,0.0877268,0.0867144,0,0,0,23.2, -3.2, -0.4,0,0,1024,1024,1024,1024,0,0,0,0,23.18,62.74,0,60,,,,,,,13.032,18,34.6442892,18.542,6,P-GPS,
16600,2026-01-27 15:27:31,60.1304594,24.5154963,18.541,18.541,16.1022892,34.6432892,0,0.019,0.0222412,0.696727,26,99,14.9,34.6742892,18.572,0.0877268,0.0867144,0,0,0,23.2, -3, -0.6,0,0,1024,1024,1024,1024,0,0,0,0,23.18,64.79,0,60,,,,,,,13.032,18,34.6432892,18.541,6,P-GPS,
16800,2026-01-27 15:27:31,60.1304594,24.5154964,18.54,18.54,16.1022892,34.6422892,0,0.0181108,0.0229204,0.702265,26,99,14.9,34.6742892,18.572,0.0877268,0.0867144,0,0,0,23.2, -2.8, -0.7,0,0,1024,1024,1024,1024,0,0,0,0,23.18,66.84,0,60,,,,,,,13.032,18,34.6422892,18.54,6,P-GPS,
17000,2026-01-27 15:27:31,60.1304595,24.5154965,18.539,18.539,16.1022892,34.6412892,0,0.0200998,0.0156959,0.714688,26,99,14.983,34.6742892,18.572,0.0877268,0.0867144,0,0,0,23.3, -2.7, -0.8,0,0,1024,1024,1024,1024,0,0,0,0,23.18,68.79,0,60,,,,,,,13.086,18.1,34.6412892,18.539,6,P-GPS,
17200,2026-01-27 15:27:31,60.1304596,24.5154965,18.539,18.539,16.1022892,34.6412892,0,0.0186815,0.0110767,0.725809,26,99,14.983,34.6742892,18.572,0.0877268,0.0867144,0,0,0,23.2, -2.5, -0.7,0,0,1024,1024,1024,1024,0,0,0,0,23.18,70.84,0,60,,,,,,,13.086,18.1,34.6412892,18.539,6,P-GPS,
17400,2026-01-27 15:27:31,60.1304596,24.5154965,18.539,18.539,16.1022892,34.6412892,0,0.0107703,0.0110767,0.725809,26,99,14.983,34.6742892,18.572,0.0877268,0.0867144,0,0,0,23.2, -2.3, -0.7,0,0,1024,1024,1024,1024,0,0,0,0,23.18,72.79,0,60,,,,,,,13.086,18.1,34.6412892,18.539,6,P-GPS,
17600,2026-01-27 15:27:32,60.1304596,24.5154965,18.54,18.54,16.1022892,34.6422892,0,0.0156525,0.0110767,0.725809,26,99,14.983,34.6742892,18.572,0.0877268,0.0867144,0,0,0,23.2, -2.4, -0.8,0,0,1024,1024,1024,1024,0,0,0,0,23.18,74.88,0,60,,,,,,,13.086,18.1,34.6422892,18.54,6,P-GPS,
17800,2026-01-27 15:27:32,60.1304596,24.5154964,18.539,18.539,16.1022892,34.6412892,0,0.017088,0.00553836,0.731347,26,99,14.983,34.6742892,18.572,0.0877268,0.0867144,0,0,0,23.2, -2.5, -0.5,0,0,1024,1024,1024,1024,0,0,0,0,23.18,76.38,0,60,,,,,,,13.086,18.1,34.6412892,18.539,6,P-GPS,
18000,2026-01-27 15:27:32,60.1304597,24.5154963,18.54,18.54,16.1022892,34.6422892,0,0.0126491,0.0111206,0.743771,26,99,15.058,34.6742892,18.572,0.0877268,0.0867144,0,0,0,23.2, -2.5, -0.5,0,0,1024,1024,1024,1024,0,0,0,0,23.18,77.59,0,60,,,,,,,13.304,18.2,34.6422892,18.54,6,P-GPS,
18200,2026-01-27 15:27:32,60.1304597,24.5154961,18.542,18.542,16.1022892,34.6442892,0,0.0150333,0.0156959,0.754848,26,99,15.058,34.6742892,18.572,0.0877268,0.0867144,0,0,0,23.2, -2.6, -0.4,0,0,1024,1024,1024,1024,0,0,0,0,23.18,78.22,0,60,,,,,,,13.304,18.2,34.6442892,18.542,6,P-GPS,
18400,2026-01-27 15:27:32,60.1304596,24.515496,18.543,18.543,16.1022892,34.6452892,0,0.0143178,0.0166151,0.767271,26,99,15.058,34.6742892,18.572,0.0877268,0.0867144,0,0,0,23.2, -2.7, -0.3,0,0,1024,1024,1024,1024,0,0,0,0,23.18,76.69,0,60,,,,,,,13.304,18.2,34.6452892,18.543,6,P-GPS,
18600,2026-01-27 15:27:33,60.1304596,24.5154959,18.545,18.545,16.1022892,34.6472892,0,0.01253,0.0221534,0.772809,26,99,15.058,34.6742892,18.572,0.0877268,0.0867144,0,0,0,23.2, -2.8, -0.3,0,0,1024,1024,1024,1024,0,0,0,0,23.18,74.9,0,60,,,,,,,13.304,18.2,34.6472892,18.545,6,P-GPS,
18800,2026-01-27 15:27:33,60.1304595,24.5154958,18.547,18.547,16.1022892,34.6492892,0,0.0111803,0.0298413,0.785233,26,99,15.058,34.6742892,18.572,0.0877268,0.0867144,0,0,0,23.2, -3, -0.3,0,0,1024,1024,1024,1024,0,0,0,0,23.18,71.4,0,60,,,,,,,13.304,18.2,34.6492892,18.547,6,P-GPS,
19000,2026-01-27 15:27:33,60.1304595,24.5154957,18.546,18.546,16.1022892,34.6482892,0,0.009,0.0350416,0.790771,26,99,14.948,34.6742892,18.572,0.0877268,0.0867144,0,0,0,23.2, -3.1, -0.3,0,0,1024,1024,1024,1024,0,0,0,0,23.18,68.41,0,60,,,,,,,13.356,18.2,34.6482892,18.546,6,P-GPS,
19200,2026-01-27 15:27:33,60.1304595,24.5154958,18.546,18.546,16.1022892,34.6482892,0,0.00538516,0.0298413,0.796309,26,99,14.948,34.6742892,18.572,0.0877268,0.0867144,0,0,0,23.2, -3, -0.3,0,0,1024,1024,1024,1024,0,0,0,0,23.18,68.41,0,60,,,,,,,13.356,18.2,34.6482892,18.546,6,P-GPS,
19400,2026-01-27 15:27:33,60.1304595,24.5154958,18.545,18.545,16.1022892,34.6472892,0,0.00509902,0.0298413,0.796309,26,99,14.948,34.6742892,18.572,0.0877268,0.0867144,0,0,0,23.2, -2.9, -0.3,0,0,1024,1024,1024,1024,0,0,0,0,23.18,68.41,0,60,,,,,,,13.356,18.2,34.6472892,18.545,6,P-GPS,
19600,2026-01-27 15:27:34,60.1304595,24.5154959,18.545,18.545,16.1022892,34.6472892,0,0.00565685,0.024788,0.801848,26,99,14.948,34.6742892,18.572,0.0877268,0.0867144,0,0,0,23.2, -2.8, -0.3,0,0,1024,1024,1024,1024,0,0,0,0,23.18,68.41,0,60,,,,,,,13.356,18.2,34.6472892,18.545,6,P-GPS,
19800,2026-01-27 15:27:34,60.1304595,24.515496,18.543,18.543,16.1022892,34.6452892,0,0.00860232,0.0199932,0.807386,26,99,14.948,34.6742892,18.572,0.0877268,0.0867144,0,0,0,23.2, -2.7, -0.5,0,0,1024,1024,1024,1024,0,0,0,0,23.18,68.41,0,60,,,,,,,13.356,18.2,34.6452892,18.543,6,P-GPS,
20000,2026-01-27 15:27:34,60.1304595,24.5154961,18.543,18.543,16.1022892,34.6452892,0,0.0127279,0.0156959,0.812925,26,99,14.931,34.6742892,18.572,0.0877268,0.0867144,0,0,0,23.2, -2.6, -0.6,0,0,1024,1024,1024,1024,0,0,0,0,23.18,68.41,0,60,,,,,,,13.308,18.2,34.6452892,18.543,6,P-GPS,
20200,2026-01-27 15:27:34,60.1304596,24.5154962,18.542,18.542,16.1022892,34.6442892,0,0.0104403,0.00553836,0.825348,26,99,14.931,34.6742892,18.572,0.0877268,0.0867144,0,0,0,23.2, -2.3, -0.6,0,0,1024,1024,1024,1024,0,0,0,0,23.18,68.41,0,60,,,,,,,13.308,18.2,34.6442892,18.542,6,P-GPS,
20400,2026-01-27 15:27:34,60.1304596,24.5154962,18.541,18.541,16.1022892,34.6432892,0,0.007,0.00553836,0.825348,26,99,14.931,34.6742892,18.572,0.0877268,0.0867144,0,0,0,23.2, -2.1, -0.6,0,0,1024,1024,1024,1024,0,0,0,0,23.18,68.41,0,60,,,,,,,13.308,18.2,34.6432892,18.541,6,P-GPS,
20600,2026-01-27 15:27:35,60.1304597,24.5154962,18.54,18.54,16.1022892,34.6422892,0,0.00412311,0.0124234,0.836469,26,99,14.931,34.6742892,18.572,0.0877268,0.0867144,0,0,0,23.2, -2.1, -0.5,0,0,1024,1024,1024,1024,0,0,0,0,23.18,68.41,0,60,,,,,,,13.308,18.2,34.6422892,18.54,6,P-GPS,
20800,2026-01-27 15:27:35,60.1304597,24.5154962,18.541,18.541,16.1022892,34.6432892,0,0.003,0.0124234,0.836469,26,99,14.931,34.6742892,18.572,0.0877268,0.0867144,0,0,0,23.2, -2.1, -0.3,0,0,1024,1024,1024,1024,0,0,0,0,23.18,68.41,0,60,,,,,,,13.308,18.2,34.6432892,18.541,6,P-GPS,
21000,2026-01-27 15:27:35,60.1304598,24.5154961,18.541,18.541,16.1022892,34.6432892,0,0.00707107,0.0248468,0.848892,26,99,15.074,34.6742892,18.572,0.0877268,0.0867144,0,0,0,23.2, -2, -0.2,0,0,1024,1024,1024,1024,0,0,0,0,23.18,68.41,0,60,,,,,,,13.626,18.2,34.6432892,18.541,6,P-GPS,
21200,2026-01-27 15:27:35,60.1304598,24.5154959,18.542,18.542,16.1022892,34.6442892,0,0.0152315,0.0313918,0.859969,26,99,15.074,34.6742892,18.572,0.0877268,0.0867144,0,0,0,23.2, -2.1, 0,0,0,1024,1024,1024,1024,0,0,0,0,23.18,68.41,0,60,,,,,,,13.626,18.2,34.6442892,18.542,6,P-GPS,
21400,2026-01-27 15:27:35,60.1304598,24.5154958,18.542,18.542,16.1022892,34.6442892,0,0.0201246,0.0355177,0.865507,26,99,15.074,34.6742892,18.572,0.0877268,0.0867144,0,0,0,23.2, -2.3, 0.2,0,0,1024,1024,1024,1024,0,0,0,0,23.18,68.41,0,60,,,,,,,13.626,18.2,34.6442892,18.542,6,P-GPS,
21600,2026-01-27 15:27:36,60.1304598,24.5154956,18.542,18.542,16.1022892,34.6442892,0,0.0158114,0.0446953,0.876584,26,99,15.074,34.6742892,18.572,0.0877268,0.0867144,0,0,0,23.3, -2.5, 0.5,0,0,1024,1024,1024,1024,0,0,0,0,23.18,68.41,0,60,,,,,,,13.626,18.2,34.6442892,18.542,6,P-GPS,
21800,2026-01-27 15:27:36,60.1304597,24.5154956,18.543,18.543,16.1022892,34.6452892,0,0.0145602,0.040332,0.887704,26,99,15.074,34.6742892,18.572,0.0877268,0.0867144,0,0,0,23.3, -2.5, 0.5,0,0,1024,1024,1024,778,0,0,0,-37,23.18,68.41,0,60,,,,,,,13.626,18.2,34.6452892,18.543,6,P-GPS,
22000,2026-01-27 15:27:36,60.1304597,24.5154955,18.542,18.542,16.1022892,34.6442892,0,0.0189737,0.0456812,0.893243,26,99,14.865,34.6742892,18.572,0.0877268,0.0867144,0,0,0,23.3, -2.8, 0.4,0,0,1024,1024,1024,733,0,0,0,-44,23.16,68.41,0,60,,,,,,,13.516,18.2,34.6442892,18.542,6,P-GPS,
22200,2026-01-27 15:27:36,60.1304596,24.5154956,18.543,18.543,16.1022892,34.6452892,0,0.0219317,0.0387685,0.905666,26,99,14.865,34.6742892,18.572,0.0877268,0.0867144,0,0,0,22.4, -2.9, 0.1,0,0,1024,1024,1024,591,0,0,0,-66,22.26,68.41,0,60,,,,,,,13.516,18.2,34.6452892,18.543,6,P-GPS,
22400,2026-01-27 15:27:36,60.1304596,24.5154957,18.544,18.544,16.1022892,34.6462892,0,0.0286007,0.0332302,0.911205,26,99,14.865,34.6742892,18.572,0.0877268,0.0867144,0,0,0,20.5, -2.8, -0.2,0,0,1024,1024,1024,626,0,0,0,-60,20.43,68.41,0,60,,,,,,,13.516,18.2,34.6462892,18.544,6,P-GPS,
22600,2026-01-27 15:27:37,60.1304595,24.5154959,18.544,18.544,16.1022892,34.6462892,0,0.0286531,0.024788,0.926901,26,99,14.865,34.6742892,18.572,0.0877268,0.0867144,0,0,0,17.4, -2.8, -0.5,0,0,1024,1024,1024,579,0,0,0,-67,17.26,68.41,0,60,,,,,,,13.516,18.2,34.6462892,18.544,6,P-GPS,
22800,2026-01-27 15:27:37,60.1304595,24.515496,18.544,18.544,16.1022892,34.6462892,0,0.0247386,0.0199932,0.932439,26,99,14.865,34.6742892,18.572,0.0877268,0.0867144,0,0,0,14.1, -2.8, -0.7,0,0,1024,1024,1024,551,0,0,0,-72,13.88,68.41,0,60,,,,,,,13.516,18.2,34.6462892,18.544,6,P-GPS,
23000,2026-01-27 15:27:37,60.1304596,24.5154961,18.542,18.542,16.1022892,34.6442892,0,0.0133417,0.0110767,0.944862,26,99,14.74,34.6742892,18.572,0.0877268,0.0867144,0,0,0,10.4, -2.7, -0.7,0,0,1024,1024,1024,551,0,0,0,-72,10.09,68.41,0,60,,,,,,,13.57,18.2,34.6442892,18.542,6,P-GPS,
23200,2026-01-27 15:27:37,60.1304596,24.5154962,18.539,18.539,16.1022892,34.6412892,0,0.0156205,0.00553836,0.950401,26,99,14.74,34.6742892,18.572,0.0877268,0.0867144,0,0,0,6, -2.1, -0.3,0,0,1024,1024,1024,482,0,0,0,-82,5.47,68.41,0,60,,,,,,,13.57,18.2,34.6412892,18.539,6,P-GPS,
23400,2026-01-27 15:27:37,60.1304597,24.5154962,18.537,18.537,16.1022892,34.6392892,0,0.0203961,0.0124234,0.961521,26,99,14.74,34.6742892,18.572,0.0877268,0.0867144,0,0,0,1.2, -2, -0.3,0,0,1024,1024,1024,481,0,0,0,-82,0.32,68.41,0,60,,,,,,,13.57,18.2,34.6392892,18.537,6,P-GPS,
23600,2026-01-27 15:27:38,60.1304599,24.5154961,18.536,18.536,16.1022892,34.6382892,0,0.0223607,0.0351526,0.984442,26,99,14.74,34.6742892,18.572,0.0877268,0.0867144,0,0,0,355.4, -1.5, 0,0,0,1024,1024,1024,480,0,0,0,-82,354.23,68.41,0,60,,,,,,,13.57,18.2,34.6382892,18.536,6,P-GPS,
23800,2026-01-27 15:27:38,60.13046,24.515496,18.535,18.535,16.1022892,34.6372892,0,0.0196977,0.0474842,0.996865,26,99,14.74,34.6742892,18.572,0.0877268,0.0867144,0,0,0,348.9, -1, 0.2,0,0,1024,1024,1024,475,0,0,0,-83,347.46,68.41,0,60,,,,,,,13.57,18.2,34.6372892,18.535,6,P-GPS,
24000,2026-01-27 15:27:38,60.13046,24.5154958,18.534,18.534,16.1022892,34.6362892,0,0.0147648,0.0523977,1.00794,26,99,14.866,34.6742892,18.572,0.0877268,0.0867144,0,0,0,342.3, -0.8, 0.5,0,0,1024,1024,1024,516,0,0,0,-77,340.59,68.41,0,60,,,,,,,13.982,18.2,34.6362892,18.534,6,P-GPS,
24200,2026-01-27 15:27:38,60.13046,24.5154957,18.535,18.535,16.1022892,34.6372892,0,0.0196977,0.0555242,1.01348,27,99,14.866,34.6742892,18.572,0.0877268,0.0867144,0,0,0,335.6, -0.7, 0.6,0,0,1024,1024,1024,554,0,0,0,-71,333.69,68.41,0,60,,,,,,,13.982,18.2,34.6372892,18.535,6,P-GPS,
24400,2026-01-27 15:27:38,60.1304599,24.5154956,18.536,18.536,16.1022892,34.6382892,0,0.0311127,0.051147,1.0259,27,99,14.866,34.6742892,18.572,0.0877268,0.0867144,0,0,0,329.7, -0.8, 1.2,0,0,1024,1024,1024,547,0,0,0,-72,328.25,68.41,0,60,,,,,,,13.982,18.2,34.6382892,18.536,6,P-GPS,
24600,2026-01-27 15:27:39,60.1304599,24.5154954,18.537,18.537,16.1022892,34.6392892,0,0.0367967,0.0599797,1.03698,27,99,14.866,34.6742892,18.572,0.0877268,0.0867144,0,0,0,324.9, -0.9, 1.8,0,0,1024,1024,1024,542,0,0,0,-73,323.27,68.41,0,60,,,,,,,13.982,18.2,34.6392892,18.537,6,P-GPS,
24800,2026-01-27 15:27:39,60.1304598,24.5154954,18.539,18.539,16.1022892,34.6412892,0,0.0269258,0.0545822,1.0481,27,99,14.866,34.6742892,18.572,0.0877268,0.0867144,0,0,0,320.3, -0.7, 2.2,0,0,1024,1024,1024,523,0,0,0,-76,320.66,68.41,0,60,,,,,,,13.982,18.2,34.6412892,18.539,6,P-GPS,
25000,2026-01-27 15:27:39,60.1304598,24.5154954,18.54,18.54,16.1022892,34.6422892,0,0.0180278,0.0545822,1.0481,27,99,14.706,34.6742892,18.572,0.0877268,0.0867144,0,0,0,315.6, -0.6, 2,0,0,1024,1024,1024,446,0,0,0,-88,315.95,68.41,0,60,,,,,,,14.264,18.3,34.6422892,18.54,6,P-GPS,
25200,2026-01-27 15:27:39,60.1304598,24.5154955,18.542,18.542,16.1022892,34.6442892,0,0.0183848,0.0495759,1.05364,27,99,14.706,34.6742892,18.572,0.0877268,0.0867144,0,0,0,310.6, -0.5, 1.7,0,0,1024,1024,1024,444,0,0,0,-88,310.69,68.41,0,60,,,,,,,14.264,18.3,34.6442892,18.542,6,P-GPS,
25400,2026-01-27 15:27:39,60.1304598,24.5154956,18.543,18.543,16.1022892,34.6452892,0,0.0178045,0.0446953,1.05918,27,99,14.706,34.6742892,18.572,0.0877268,0.0867144,0,0,0,303.9, -0.5, 1.6,0,0,1024,1024,1024,458,0,0,0,-86,303.64,68.41,0,60,,,,,,,14.264,18.3,34.6452892,18.543,6,P-GPS,
25600,2026-01-27 15:27:40,60.1304598,24.5154957,18.546,18.546,16.1022892,34.6482892,0,0.00608276,0.0399865,1.06472,27,99,14.706,34.6742892,18.572,0.0877268,0.0867144,0,0,0,292.4, -0.3, 1.4,0,0,1024,1024,1024,487,0,0,0,-81,296.06,68.41,0,60,,,,,,,14.264,18.3,34.6482892,18.546,6,P-GPS,
25800,2026-01-27 15:27:40,60.1304598,24.5154957,18.546,18.546,16.1022892,34.6482892,0,0.00921954,0.0399865,1.06472,27,99,14.706,34.6742892,18.572,0.0877268,0.0867144,0,0,0,285.4, 0.3, 1.3,0,0,1024,1024,1024,526,0,0,0,-75,288.34,68.41,0,60,,,,,,,14.264,18.3,34.6482892,18.546,6,P-GPS,
26000,2026-01-27 15:27:40,60.1304599,24.5154956,18.546,18.546,16.1022892,34.6482892,0,0.0174929,0.051147,1.07714,27,99,14.597,34.6742892,18.572,0.0877268,0.0867144,0,0,0,279.3, 0.8, 1.5,0,0,1024,1024,1024,533,0,0,0,-74,281.56,68.41,0,60,,,,,,,14.166,18.3,34.6482892,18.546,6,P-GPS,
26200,2026-01-27 15:27:40,60.1304599,24.5154956,18.548,18.548,16.1022892,34.6502892,0,0.0162788,0.051147,1.07714,26,99,14.597,34.6742892,18.572,0.0877268,0.0867144,0,0,0,273.8, 1.2, 1.6,0,0,1024,1024,1024,569,0,0,0,-69,275.67,68.41,0,60,,,,,,,14.166,18.3,34.6502892,18.548,6,P-GPS,
26400,2026-01-27 15:27:40,60.1304599,24.5154955,18.549,18.549,16.1022892,34.6512892,0,0.0161245,0.0554627,1.08268,26,99,14.597,34.6742892,18.572,0.0877268,0.0867144,0,0,0,271.1, 1.2, 1.5,0,0,1024,1024,1024,538,0,0,0,-74,269.86,68.41,0,60,,,,,,,14.166,18.3,34.6512892,18.549,6,P-GPS,
26600,2026-01-27 15:27:41,60.1304599,24.5154954,18.55,18.55,16.1022892,34.6522892,0,0.00806226,0.0599797,1.08822,26,99,14.597,34.6742892,18.572,0.0877268,0.0867144,0,0,0,263.9, 1.5, 1.3,0,0,1024,1024,1024,486,0,0,0,-82,265.09,68.41,0,60,,,,,,,14.166,18.3,34.6522892,18.55,6,P-GPS,
26800,2026-01-27 15:27:41,60.1304599,24.5154954,18.55,18.55,16.1022892,34.6522892,0,0.0067082,0.0599797,1.08822,26,99,14.597,34.6742892,18.572,0.0877268,0.0867144,0,0,0,257.8, 1.5, 1.1,0,0,1024,1024,1024,574,0,0,0,-68,258.97,68.41,0,60,,,,,,,14.166,18.3,34.6522892,18.55,6,P-GPS,
27000,2026-01-27 15:27:41,60.1304599,24.5154954,18.55,18.55,16.1022892,34.6522892,0,0.00583095,0.0599797,1.08822,26,99,14.612,34.6742892,18.572,0.0877268,0.0867144,0,0,0,251.2, 1.5, 0.4,0,0,1024,1024,1024,1024,0,0,0,0,251.76,68.41,0,60,,,,,,,13.812,18.3,34.6522892,18.55,6,P-GPS,
27200,2026-01-27 15:27:41,60.1304599,24.5154954,18.55,18.55,16.1022892,34.6522892,0,0.0299666,0.0599797,1.08822,27,99,14.612,34.6742892,18.572,0.0877268,0.0867144,0,0,0,248.7, 1.4, 0.5,0,0,1024,1024,1024,1024,0,0,0,0,249.89,68.41,0,60,,,,,,,13.812,18.3,34.6522892,18.55,6,P-GPS,
27400,2026-01-27 15:27:41,60.1304599,24.5154956,18.548,18.548,16.1022892,34.6502892,0,0.04219,0.051147,1.09929,27,99,14.612,34.6742892,18.572,0.0877268,0.0867144,0,0,0,248.3, 1.5, 1.2,0,0,1024,1024,1024,1024,0,0,0,0,248.72,68.41,0,60,,,,,,,13.812,18.3,34.6502892,18.548,6,P-GPS,
27600,2026-01-27 15:27:42,60.1304598,24.5154957,18.546,18.546,16.1022892,34.6482892,0,0.0318904,0.0399865,1.11172,27,99,14.612,34.6742892,18.572,0.0877268,0.0867144,0,0,0,248.3, 1.3, 1.3,0,0,1024,1024,1024,1024,0,0,0,0,248.44,68.41,0,60,,,,,,,13.812,18.3,34.6482892,18.546,6,P-GPS,
27800,2026-01-27 15:27:42,60.1304598,24.5154958,18.544,18.544,16.1022892,34.6462892,0,0.0268701,0.0355177,1.11725,27,99,14.612,34.6742892,18.572,0.0877268,0.0867144,0,0,0,248.3, 1.2, 1.1,0,0,1024,1024,1024,1024,0,0,0,0,248.37,66.19,0,60,,,,,,,13.812,18.3,34.6462892,18.544,6,P-GPS,
28000,2026-01-27 15:27:42,60.1304599,24.5154958,18.542,18.542,16.1022892,34.6442892,0,0.0228035,0.0433572,1.12838,27,99,14.683,34.6742892,18.572,0.0877268,0.0867144,0,0,0,248.3, 1.1, 1.1,0,0,1024,1024,1024,1024,0,0,0,0,248.36,55.98,0,60,,,,,,,13.488,18.3,34.6442892,18.542,6,P-GPS,
28200,2026-01-27 15:27:42,60.1304599,24.5154958,18.54,18.54,16.1022892,34.6422892,0,0.0180278,0.0433572,1.12838,27,99,14.683,34.6742892,18.572,0.0877268,0.0867144,0,0,0,248.3, 1.1, 0.8,0,0,1024,1024,1024,1024,0,0,0,0,248.36,53.95,0,60,,,,,,,13.488,18.3,34.6422892,18.54,6,P-GPS,
28400,2026-01-27 15:27:42,60.1304599,24.5154957,18.54,18.54,16.1022892,34.6422892,0,0.0192354,0.0470877,1.13391,27,99,14.683,34.6742892,18.572,0.0877268,0.0867144,0,0,0,248.3, 1.3, 0.6,0,0,1024,1024,1024,1024,0,0,0,0,248.36,52.33,0,60,,,,,,,13.488,18.3,34.6422892,18.54,6,P-GPS,
28600,2026-01-27 15:27:43,60.1304599,24.5154956,18.541,18.541,16.1022892,34.6432892,0,0.0251794,0.051147,1.13945,27,99,14.683,34.6742892,18.572,0.0877268,0.0867144,0,0,0,248.3, 1.7, 0.5,0,0,1024,1024,1024,1024,0,0,0,0,248.36,52.33,0,60,,,,,,,13.488,18.3,34.6432892,18.541,6,P-GPS,
28800,2026-01-27 15:27:43,60.1304599,24.5154955,18.542,18.542,16.1022892,34.6442892,0,0.027074,0.0554627,1.14499,27,99,14.683,34.6742892,18.572,0.0877268,0.0867144,0,0,0,248.4, 1.8, 0.5,0,0,1024,1024,1024,1024,0,0,0,0,248.36,52.33,0,60,,,,,,,13.488,18.3,34.6442892,18.542,6,P-GPS,
29000,2026-01-27 15:27:43,60.1304599,24.5154954,18.544,18.544,16.1022892,34.6462892,0,0.0266833,0.0599797,1.15053,27,99,14.784,34.6742892,18.572,0.0877268,0.0867144,0,0,0,248.3, 2.1, 0.6,0,0,1024,1024,1024,1024,0,0,0,0,248.36,47.76,0,60,,,,,,,13.656,18.3,34.6462892,18.544,6,P-GPS,
29200,2026-01-27 15:27:43,60.1304598,24.5154953,18.545,18.545,16.1022892,34.6472892,0,0.0254951,0.0596826,1.16295,27,99,14.784,34.6742892,18.572,0.0877268,0.0867144,0,0,0,248.3, 2, 0.7,0,0,1024,1024,1024,1024,0,0,0,0,248.36,36.68,0,60,,,,,,,13.656,18.3,34.6472892,18.545,6,P-GPS,
29400,2026-01-27 15:27:43,60.1304598,24.5154953,18.547,18.547,16.1022892,34.6492892,0,0.0248395,0.0596826,1.16295,27,99,14.784,34.6742892,18.572,0.0877268,0.0867144,0,0,0,248.3, 2, 0.8,0,0,1024,1024,1024,1024,0,0,0,0,248.36,36.06,0,60,,,,,,,13.656,18.3,34.6492892,18.547,6,P-GPS,
29600,2026-01-27 15:27:44,60.1304597,24.5154954,18.547,18.547,16.1022892,34.6492892,0,0.0280179,0.0510707,1.17538,27,99,14.784,34.6742892,18.572,0.0877268,0.0867144,0,0,0,248.4, 1.9, 0.9,0,0,1024,1024,1024,1024,0,0,0,0,248.36,35.58,0,60,,,,,,,13.656,18.3,34.6492892,18.547,6,P-GPS,
29800,2026-01-27 15:27:44,60.1304597,24.5154955,18.547,18.547,16.1022892,34.6492892,0,0.031305,0.0456812,1.18091,27,99,14.784,34.6742892,18.572,0.0877268,0.0867144,0,0,0,248.4, 1.4, 1,0,0,1024,1024,1024,1024,0,0,0,0,248.36,35.56,0,60,,,,,,,13.656,18.3,34.6492892,18.547,6,P-GPS,
30000,2026-01-27 15:27:44,60.1304596,24.5154957,18.546,18.546,16.1022892,34.6482892,0,0.0268328,0.0332302,1.19661,27,99,14.63,34.6742892,18.572,0.0877268,0.0867144,0,0,0,248.4, 1.2, 1.2,0,0,1024,1024,1024,1024,0,0,0,0,248.36,32.48,0,60,,,,,,,13.522,18.4,34.6482892,18.546,6,P-GPS,
30200,2026-01-27 15:27:44,60.1304596,24.5154959,18.545,18.545,16.1022892,34.6472892,0,0.0245967,0.0221534,1.20769,27,99,14.63,34.6742892,18.572,0.0877268,0.0867144,0,0,0,248.3, 1.1, 1.2,0,0,1024,1024,1024,1024,0,0,0,0,248.36,27.11,0,60,,,,,,,13.522,18.4,34.6472892,18.545,6,P-GPS,
30400,2026-01-27 15:27:44,60.1304595,24.515496,18.544,18.544,16.1022892,34.6462892,0,0.021095,0.0199932,1.22011,27,99,14.63,34.6742892,18.572,0.0877268,0.0867144,0,0,0,248.3, 1, 1.5,0,0,1024,1024,1024,1024,0,0,0,0,248.36,22.45,0,60,,,,,,,13.522,18.4,34.6462892,18.544,6,P-GPS,
30600,2026-01-27 15:27:45,60.1304595,24.5154961,18.545,18.545,16.1022892,34.6472892,0,0.0127279,0.0156959,1.22565,28,99,14.63,34.6742892,18.572,0.0877268,0.0867144,0,0,0,248.3, 1, 1.5,0,0,1024,1024,1024,1024,0,0,0,0,248.36,22.46,0,60,,,,,,,13.522,18.4,34.6472892,18.545,6,P-GPS,
30800,2026-01-27 15:27:45,60.1304595,24.5154961,18.547,18.547,16.1022892,34.6492892,0,0.00728011,0.0156959,1.22565,28,99,14.63,34.6742892,18.572,0.0877268,0.0867144,0,0,0,248.3, 1.1, 1.5,0,0,1024,1024,1024,1024,0,0,0,0,248.36,22.46,0,60,,,,,,,13.522,18.4,34.6492892,18.547,6,P-GPS,
31000,2026-01-27 15:27:45,60.1304595,24.5154961,18.547,18.547,16.1022892,34.6492892,0,0.00640312,0.0156959,1.22565,28,99,14.763,34.6742892,18.572,0.0877268,0.0867144,0,0,0,248.3, 1.5, 1.3,0,0,1024,1024,1024,1024,0,0,0,0,248.36,22.33,0,60,,,,,,,13.556,18.4,34.6492892,18.547,6,P-GPS,
31200,2026-01-27 15:27:45,60.1304596,24.515496,18.548,18.548,16.1022892,34.6502892,0,0.00707107,0.0166151,1.23807,28,99,14.763,34.6742892,18.572,0.0877268,0.0867144,0,0,0,248.4, 1.6, 1.1,0,0,1024,1024,1024,1024,0,0,0,0,248.36,20.09,0,60,,,,,,,13.556,18.4,34.6502892,18.548,6,P-GPS,
31400,2026-01-27 15:27:45,60.1304596,24.5154959,18.547,18.547,16.1022892,34.6492892,0,0.0072111,0.0221534,1.24361,28,99,14.763,34.6742892,18.572,0.0877268,0.0867144,0,0,0,248.4, 1.7, 1.1,0,0,1024,1024,1024,1024,0,0,0,0,248.36,17.58,0,60,,,,,,,13.556,18.4,34.6492892,18.547,6,P-GPS,
31600,2026-01-27 15:27:46,60.1304596,24.5154958,18.545,18.545,16.1022892,34.6472892,0,0.0134536,0.0276918,1.24915,28,99,14.763,34.6742892,18.572,0.0877268,0.0867144,0,0,0,248.3, 1.9, 1.1,0,0,1024,1024,1024,1024,0,0,0,0,248.36,15.08,0,60,,,,,,,13.556,18.4,34.6472892,18.545,6,P-GPS,
31800,2026-01-27 15:27:46,60.1304596,24.5154956,18.544,18.544,16.1022892,34.6462892,0,0.0098995,0.0387685,1.26023,28,99,14.763,34.6742892,18.572,0.0877268,0.0867144,0,0,0,248.3, 2.2, 1.1,0,0,1024,1024,1024,1024,0,0,0,0,248.36,14.09,0,60,,,,,,,13.556,18.4,34.6462892,18.544,6,P-GPS,
32000,2026-01-27 15:27:46,60.1304596,24.5154955,18.545,18.545,16.1022892,34.6472892,0,0.0067082,0.0443069,1.26576,28,99,14.687,34.6742892,18.572,0.0877268,0.0867144,0,0,0,248.4, 2.3, 1.2,0,0,1024,1024,1024,1024,0,0,0,0,248.36,9.54,0,60,,,,,,,13.53,18.4,34.6472892,18.545,6,P-GPS,
32200,2026-01-27 15:27:46,60.1304596,24.5154955,18.545,18.545,16.1022892,34.6472892,0,0.00538516,0.0443069,1.26576,28,99,14.687,34.6742892,18.572,0.0877268,0.0867144,0,0,0,248.4, 2.4, 1.2,0,0,1024,1024,1024,1024,0,0,0,0,248.36,5.96,0,60,,,,,,,13.53,18.4,34.6472892,18.545,6,P-GPS,
32400,2026-01-27 15:27:46,60.1304595,24.5154955,18.546,18.546,16.1022892,34.6482892,0,0.013,0.0456812,1.27688,28,99,14.687,34.6742892,18.572,0.0877268,0.0867144,0,0,0,248.3, 2.3, 1.2,0,0,1024,1024,1689,1024,0,0,100,0,248.36,3.75,0,60,,,,,,,13.53,18.4,34.6482892,18.546,6,P-GPS,
32600,2026-01-27 15:27:47,60.1304595,24.5154956,18.56,18.56,16.1022892,34.6622892,0,0.0254951,0.040332,1.28242,28,99,14.687,34.6742892,18.572,0.0877268,0.0867144,0,0,0.1,248.3, 1.7, 1.2,0,0,1024,1024,1357,1024,0,0,50,0,248.36,3.75,0,60,,,,,,,13.53,18.4,34.6622892,18.56,6,P-GPS,
32800,2026-01-27 15:27:47,60.1304594,24.5154958,18.703,18.703,16.1022892,34.8052892,0,0.031241,0.0355177,1.29812,28,99,14.687,34.8052892,18.703,0.0877268,0.0867144,0,0,0.2,248.3, 1.4, 1.1,0,0,1024,1024,1024,1024,0,0,0,0,248.36,3.75,0,60,,,,,,,13.53,18.4,34.8052892,18.703,6,P-GPS,
33000,2026-01-27 15:27:47,60.1304594,24.515496,19.026,19.026,16.1022892,35.1282892,0,0.0377359,0.0277621,1.3092,28,99,14.679,35.1282892,19.026,0.0877268,0.0867144,0,0,0.2,248.3, 1.3, 1.3,0,0,1024,1024,1024,1024,0,0,0,0,248.36,3.75,0,60,,,,,,,13.936,18.4,35.1282892,19.026,6,P-GPS,
33200,2026-01-27 15:27:47,60.1304595,24.5154962,19.361,19.361,16.1022892,35.4632892,0,0.0228035,0.0124234,1.32489,28,99,14.679,35.4632892,19.361,0.0877268,0.0867144,0,0,0.1,248.3, 0.7, 1.1,0,0,1024,1024,1340,1024,0,0,48,0,248.36,3.75,0,60,,,,,,,13.936,18.4,35.4632892,19.361,6,P-GPS,
33400,2026-01-27 15:27:47,60.1304595,24.5154961,19.513,19.513,16.1022892,35.6152892,0,0.00806226,0.0156959,1.33043,28,99,14.679,35.6152892,19.513,0.0877268,0.0867144,0,0,0,248.2, 1.3, 0.6,0,0,1024,1024,1625,1024,0,0,91,0,248.36,3.75,0,60,,,,,,,13.936,18.4,35.6152892,19.513,6,P-GPS,
33600,2026-01-27 15:27:48,60.1304595,24.5154961,19.607,19.607,16.1022892,35.7092892,0,0.0134164,0.0156959,1.33043,28,99,14.679,35.7092892,19.607,0.0877268,0.0867144,0,0,0.1,248.4, 1.4, 0.8,0,0,1024,1024,1024,1024,0,0,0,0,248.36,3.75,0,60,,,,,,,13.936,18.4,35.7092892,19.607,6,P-GPS,
33800,2026-01-27 15:27:48,60.1304594,24.5154961,19.855,19.855,16.1022892,35.9572892,0,0.019799,0.0248468,1.34155,28,99,14.679,35.9572892,19.855,0.0877268,0.0867144,0,0,0.1,248.4, 2, 1.5,0,0,1024,1024,1024,1024,0,0,0,0,248.36,3.75,0,60,,,,,,,13.936,18.4,35.9572892,19.855,6,P-GPS,
34000,2026-01-27 15:27:48,60.1304593,24.515496,20.111,20.111,16.1022892,36.2132892,0,0.0332415,0.0372703,1.35397,28,99,14.768,36.2132892,20.111,0.0877268,0.0867144,0,0,0,248.3, 1.9, 1.6,0,0,1024,1024,1024,1024,0,0,0,0,248.36,3.75,0,60,,,,,,,16.792,18.4,36.2132892,20.111,6,P-GPS,
34200,2026-01-27 15:27:48,60.1304593,24.5154959,20.197,20.197,16.1022892,36.2992892,0,0.0205913,0.0400473,1.35951,29,99,14.768,36.2992892,20.197,0.0877268,0.0867144,0,0,0,248.2, 2.6, 1.4,0,0,1024,1024,1024,1024,0,0,0,0,248.36,3.75,0,60,,,,,,,16.792,18.4,36.2992892,20.197,6,P-GPS,
34400,2026-01-27 15:27:48,60.1304592,24.5154959,20.21,20.21,16.1022892,36.3122892,0,0.00806226,0.0496937,1.37063,29,99,14.768,36.3122892,20.21,0.0877268,0.0867144,0,0,0,248.2, 2.3, 1.7,0,0,1024,1024,1024,1024,0,0,0,0,248.36,3.75,0,60,,,,,,,16.792,18.4,36.3122892,20.21,6,P-GPS,
34600,2026-01-27 15:27:49,60.1304592,24.515496,20.215,20.215,16.1022892,36.3172892,0,0.0283196,0.0474842,1.37617,29,99,14.768,36.3172892,20.215,0.0877268,0.0867144,0,0,0,248.3, 1.5, 1.6,0,0,1024,1024,1024,1024,0,0,0,0,248.36,3.75,0,60,,,,,,,16.792,18.4,36.3172892,20.215,6,P-GPS,
34800,2026-01-27 15:27:49,60.1304593,24.5154961,20.215,20.215,16.1022892,36.3172892,0,0.0272947,0.0351526,1.38859,29,99,14.768,36.3172892,20.215,0.0877268,0.0867144,0,0,0,248.3, 1.2, 1.5,0,0,1024,1024,1024,1024,0,0,0,0,248.36,3.75,0,60,,,,,,,16.792,18.4,36.3172892,20.215,6,P-GPS,
35000,2026-01-27 15:27:49,60.1304593,24.5154962,20.206,20.206,16.1022892,36.3082892,0,0.0250799,0.0338184,1.39413,29,99,14.444,36.3172892,20.215,0.0877268,0.0867144,0,0,0,248.3, 1.1, 1.4,0,0,1024,1024,1024,1024,0,0,0,0,248.36,3.75,0,60,,,,,,,14.86,18.4,36.3082892,20.206,6,P-GPS,
35200,2026-01-27 15:27:49,60.1304594,24.5154962,20.2,20.2,16.1022892,36.3022892,0,0.025,0.0229204,1.40525,29,99,14.444,36.3172892,20.215,0.0877268,0.0867144,0,0,0,248.3, 1.2, 1.1,0,0,1024,1024,1024,1024,0,0,0,0,248.36,3.75,0,60,,,,,,,14.86,18.4,36.3022892,20.2,6,P-GPS,
35400,2026-01-27 15:27:49,60.1304594,24.5154962,20.198,20.198,16.1022892,36.3002892,0,0.02,0.0229204,1.40525,29,99,14.444,36.3172892,20.215,0.0877268,0.0867144,0,0,0,248.4, 1.1, 1,0,0,1024,1024,1024,1024,0,0,0,0,248.36,3.75,0,60,,,,,,,14.86,18.4,36.3002892,20.198,6,P-GPS,
35600,2026-01-27 15:27:50,60.1304594,24.5154962,20.198,20.198,16.1022892,36.3002892,0,0.0186011,0.0229204,1.40525,28,99,14.444,36.3172892,20.215,0.0877268,0.0867144,0,0,0,248.3, 1.1, 1.1,0,0,1024,1024,1024,1024,0,0,0,0,248.36,3.75,0,60,,,,,,,14.86,18.4,36.3002892,20.198,6,P-GPS,
35800,2026-01-27 15:27:50,60.1304594,24.5154962,20.199,20.199,16.1022892,36.3012892,0,0.0237697,0.0229204,1.40525,28,99,14.444,36.3172892,20.215,0.0877268,0.0867144,0,0,0,248.4, 1.5, 1.1,0,0,1024,1024,1024,1024,0,0,0,0,248.36,3.75,0,60,,,,,,,14.86,18.4,36.3012892,20.199,6,P-GPS,
36000,2026-01-27 15:27:50,60.1304594,24.5154961,20.201,20.201,16.1022892,36.3032892,0,0.0152971,0.0248468,1.41079,28,99,14.816,36.3172892,20.215,0.0877268,0.0867144,0,0,0,248.4, 1.8, 1,0,0,1024,1024,1024,1024,0,0,0,0,248.36,3.75,0,60,,,,,,,14.004,18.4,36.3032892,20.201,6,P-GPS,
36200,2026-01-27 15:27:50,60.1304593,24.515496,20.203,20.203,16.1022892,36.3052892,0,0.00608276,0.0372703,1.42322,29,99,14.816,36.3172892,20.215,0.0877268,0.0867144,0,0,0,248.3, 1.9, 1.2,0,0,1024,1024,1024,1024,0,0,0,0,248.36,3.75,0,60,,,,,,,14.004,18.4,36.3052892,20.203,6,P-GPS,
36400,2026-01-27 15:27:50,60.1304593,24.515496,20.204,20.204,16.1022892,36.3062892,0,0.005,0.0372703,1.42322,29,99,14.816,36.3172892,20.215,0.0877268,0.0867144,0,0,0,248.3, 1.8, 1.6,0,0,1024,1024,1024,1024,0,0,0,0,248.36,3.75,0,60,,,,,,,14.004,18.4,36.3062892,20.204,6,P-GPS,
36600,2026-01-27 15:27:51,60.1304593,24.5154961,20.205,20.205,16.1022892,36.3072892,0,0.0072111,0.0351526,1.42875,29,99,14.816,36.3172892,20.215,0.0877268,0.0867144,0,0,0,248.3, 1.5, 1.8,0,0,1024,1024,1024,1024,0,0,0,0,248.36,3.75,0,60,,,,,,,14.004,18.4,36.3072892,20.205,6,P-GPS,
36800,2026-01-27 15:27:51,60.1304592,24.5154962,20.204,20.204,16.1022892,36.3062892,0,0.0136015,0.0448259,1.44118,29,99,14.816,36.3172892,20.215,0.0877268,0.0867144,0,0,0,248.3, 1.4, 1.9,0,0,1024,1024,1024,1024,0,0,0,0,248.36,3.75,0,60,,,,,,,14.004,18.4,36.3062892,20.204,6,P-GPS,
37000,2026-01-27 15:27:51,60.1304592,24.5154962,20.202,20.202,16.1022892,36.3042892,0,0.0205913,0.0448259,1.44118,29,99,14.841,36.3172892,20.215,0.0877268,0.0867144,0,0,0,248.3, 1.4, 1.7,0,0,1024,1024,1024,1024,0,0,0,0,248.36,3.75,0,60,,,,,,,13.74,18.4,36.3042892,20.202,6,P-GPS,
37200,2026-01-27 15:27:51,60.1304593,24.5154962,20.202,20.202,16.1022892,36.3042892,0,0.0183576,0.0338184,1.4523,29,99,14.841,36.3172892,20.215,0.0877268,0.0867144,0,0,0,248.3, 1.5, 1.5,0,0,1024,1024,1024,1024,0,0,0,0,248.36,3.75,0,60,,,,,,,13.74,18.4,36.3042892,20.202,6,P-GPS,
37400,2026-01-27 15:27:51,60.1304593,24.5154963,20.201,20.201,16.1022892,36.3032892,0,0.017088,0.0333618,1.45784,29,99,14.841,36.3172892,20.215,0.0877268,0.0867144,0,0,0,248.3, 1.5, 1.5,0,0,1024,1024,1024,1024,0,0,0,0,248.36,3.75,0,60,,,,,,,13.74,18.4,36.3032892,20.201,6,P-GPS,
37600,2026-01-27 15:27:52,60.1304593,24.5154963,20.2,20.2,16.1022892,36.3022892,0,0.0205913,0.0333618,1.45784,29,99,14.841,36.3172892,20.215,0.0877268,0.0867144,0,0,0,248.3, 1.5, 1.4,0,0,1024,1024,1024,1024,0,0,0,0,248.36,3.75,0,60,,,,,,,13.74,18.4,36.3022892,20.2,6,P-GPS,
37800,2026-01-27 15:27:52,60.1304594,24.5154962,20.199,20.199,16.1022892,36.3012892,0,0.0260768,0.0229204,1.47026,29,99,14.841,36.3172892,20.215,0.0877268,0.0867144,0,0,0,248.3, 1.6, 1.2,0,0,1024,1024,1024,1024,0,0,0,0,248.36,3.75,0,60,,,,,,,13.74,18.4,36.3012892,20.199,6,P-GPS,
38000,2026-01-27 15:27:52,60.1304595,24.5154961,20.199,20.199,16.1022892,36.3012892,0,0.025,0.0156959,1.48268,29,99,14.665,36.3172892,20.215,0.0877268,0.0867144,0,0,0,248.3, 1.7, 0.9,0,0,1024,1024,1024,1024,0,0,0,0,248.36,3.75,0,60,,,,,,,13.812,18.5,36.3012892,20.199,6,P-GPS,
38200,2026-01-27 15:27:52,60.1304595,24.515496,20.198,20.198,16.1022892,36.3002892,0,0.0206155,0.0199932,1.48822,29,99,14.665,36.3172892,20.215,0.0877268,0.0867144,0,0,0,248.3, 1.9, 0.8,0,0,1024,1024,1024,1024,0,0,0,0,248.36,3.75,0,59,,,,,,,13.812,18.5,36.3002892,20.198,6,P-GPS,
38400,2026-01-27 15:27:52,60.1304595,24.515496,20.198,20.198,16.1022892,36.3002892,0,0.0176918,0.0199932,1.48822,29,99,14.665,36.3172892,20.215,0.0877268,0.0867144,0,0,0,248.3, 2, 0.8,0,0,1024,1024,1024,1024,0,0,0,0,248.36,3.75,0,59,,,,,,,13.812,18.5,36.3002892,20.198,6,P-GPS,
38600,2026-01-27 15:27:53,60.1304595,24.5154959,20.199,20.199,16.1022892,36.3012892,0,0.0120416,0.024788,1.49376,29,99,14.665,36.3172892,20.215,0.0877268,0.0867144,0,0,0,248.4, 2.1, 0.7,0,0,1024,1024,1024,1024,0,0,0,0,248.36,3.75,0,59,,,,,,,13.812,18.5,36.3012892,20.199,6,P-GPS,
38800,2026-01-27 15:27:53,60.1304595,24.5154958,20.198,20.198,16.1022892,36.3002892,0,0.00806226,0.0298413,1.4993,29,99,14.665,36.3172892,20.215,0.0877268,0.0867144,0,0,0,248.3, 2.1, 0.9,0,0,1024,1024,1024,1024,0,0,0,0,248.36,3.75,0,59,,,,,,,13.812,18.5,36.3002892,20.198,6,P-GPS,
39000,2026-01-27 15:27:53,60.1304595,24.5154958,20.199,20.199,16.1022892,36.3012892,0,0.00538516,0.0298413,1.4993,29,99,14.796,36.3172892,20.215,0.0877268,0.0867144,0,0,0,248.3, 2.3, 1,0,0,1024,1024,1024,1024,0,0,0,0,248.36,3.75,0,59,,,,,,,13.818,18.5,36.3012892,20.199,6,P-GPS,
39200,2026-01-27 15:27:53,60.1304594,24.5154958,20.199,20.199,16.1022892,36.3012892,0,0,0.0355177,1.51042,29,99,14.796,36.3172892,20.215,0.0877268,0.0867144,0,0,0,248.3, 2.3, 1.2,0,0,1024,1024,1024,1024,0,0,0,0,248.35,3.75,0,59,,,,,,,13.818,18.5,36.3012892,20.199,6,P-GPS,
39400,2026-01-27 15:27:53,60.1304593,24.5154959,20.2,20.2,16.1022892,36.3022892,0,0.00509902,0.0400473,1.52284,29,99,14.796,36.3172892,20.215,0.0877268,0.0867144,0,0,0,248.3, 2.3, 1.4,0,0,1024,1024,1024,1024,0,0,0,0,248.36,3.75,0,59,,,,,,,13.818,18.5,36.3022892,20.2,6,P-GPS,
39600,2026-01-27 15:27:54,60.1304593,24.515496,20.201,20.201,16.1022892,36.3032892,0,0.0107703,0.0372703,1.52838,30,99,14.796,36.3172892,20.215,0.0877268,0.0867144,0,0,0,248.3, 2.1, 1.6,0,0,1024,1024,1024,1024,0,0,0,0,248.36,3.75,0,59,,,,,,,13.818,18.5,36.3032892,20.201,6,P-GPS,
39800,2026-01-27 15:27:54,60.1304592,24.5154961,20.201,20.201,16.1022892,36.3032892,0,0.0144222,0.0458408,1.5408,30,99,14.796,36.3172892,20.215,0.0877268,0.0867144,0,0,0,248.3, 2, 1.8,0,0,1024,1024,1024,1024,0,0,0,0,248.36,3.75,0,59,,,,,,,13.818,18.5,36.3032892,20.201,6,P-GPS,
40000,2026-01-27 15:27:54,60.1304592,24.5154962,20.202,20.202,16.1022892,36.3042892,0,0.0202485,0.0448259,1.54634,30,99,14.603,36.3172892,20.215,0.0877268,0.0867144,0,0,0,248.3, 1.9, 1.6,0,0,1024,1024,1024,1024,0,0,0,0,248.36,3.75,0,59,,,,,,,14.17,18.5,36.3042892,20.202,6,P-GPS,
40200,2026-01-27 15:27:54,60.1304593,24.5154964,20.203,20.203,16.1022892,36.3052892,0,0.0206155,0.0338184,1.56204,30,99,14.603,36.3172892,20.215,0.0877268,0.0867144,0,0,0,248.3, 1.5, 1.5,0,0,1127,1024,1024,1024,16,0,0,0,248.36,3.75,0,59,,,,,,,14.17,18.5,36.3052892,20.203,6,P-GPS,
40400,2026-01-27 15:27:54,60.1304593,24.5154964,20.203,20.203,16.1022892,36.3052892,0,0.0155563,0.0338184,1.56204,30,99,14.603,36.3172892,20.215,0.0877268,0.0867144,0,0,0,248.3, 0.7, 0.8,0,0,1689,1024,1024,1024,100,0,0,0,248.36,3.75,0,59,,,,,,,14.17,18.5,36.3052892,20.203,6,P-GPS,
40600,2026-01-27 15:27:55,60.1304593,24.515496,20.206,20.206,16.1022892,36.3082892,0,0.272472,0.0372703,1.58419,30,99,14.603,36.3172892,20.215,0.272472,0.0867144,0,0,0,248.4, -14.8, 0.5,0,0,1689,1024,1024,1024,100,0,0,0,248.36,3.76,0,59,,,,,,,14.17,18.5,36.3082892,20.206,6,P-GPS,
40800,2026-01-27 15:27:55,60.1304588,24.5154936,20.209,20.209,16.1022892,36.3112892,0,1.00053,0.173999,1.72827,30,99,14.603,36.3172892,20.215,1.00053,0.173999,0,-0.1,0,248.3, -24.3, 0.9,0,0,1689,1024,1024,1024,100,0,0,0,248.36,3.75,0,59,,,,,,,14.17,18.5,36.3112892,20.209,6,P-GPS,
41000,2026-01-27 15:27:55,60.1304579,24.5154881,20.203,20.203,16.1022892,36.3052892,0,1.89537,0.491923,2.0489,30,99,14.749,36.3172892,20.215,1.89537,0.491923,-0.1,-0.2,0,248.9, -25.3, 0.6,0,0,1689,1024,1024,1024,100,0,0,0,248.36,3.75,0,59,,,,,,,14.202,18.5,36.3052892,20.203,6,P-GPS,
41200,2026-01-27 15:27:55,60.1304568,24.515479,20.201,20.201,16.1022892,36.3032892,0,2.80884,1.00746,2.56753,28,99,14.749,36.3172892,20.215,2.80884,1.00746,-0.1,-0.3,0,248.8, -24.4, -0.6,0,0,1689,1024,1024,1024,100,0,0,0,248.36,3.75,0,59,,,,,,,14.202,18.5,36.3032892,20.201,6,P-GPS,
41400,2026-01-27 15:27:55,60.1304551,24.5154669,20.201,20.201,16.1022892,36.3032892,0,3.65847,1.70344,3.26383,28,99,14.749,36.3172892,20.215,3.65847,1.70344,-0.1,-0.3,0,248.9, -22.7, -1.7,0,0,1689,1024,1024,1024,100,0,0,0,248.31,3.75,0,59,,,,,,,14.202,18.5,36.3032892,20.201,6,P-GPS,
41600,2026-01-27 15:27:56,60.1304533,24.5154532,20.198,20.198,16.1022892,36.3002892,0,4.31625,2.48772,4.04854,28,99,14.749,36.3172892,20.215,4.31625,2.48772,-0.1,-0.4,0,250.3, -20, -4,0,0,1689,1024,1024,1024,100,0,0,0,248.31,3.76,0,59,,,,,,,14.202,18.5,36.3002892,20.198,6,P-GPS,
41800,2026-01-27 15:27:56,60.1304507,24.5154366,20.199,20.199,16.1022892,36.3012892,0,4.97499,3.45136,5.0123,28,99,14.749,36.3172892,20.215,4.97499,3.45136,-0.2,-0.5,0,249.2, -21.7, -4.2,0,0,1689,1024,1024,1024,100,0,0,0,248.31,3.75,0,59,,,,,,,14.202,18.5,36.3012892,20.199,6,P-GPS,
42000,2026-01-27 15:27:56,60.1304471,24.5154182,20.203,20.203,16.1022892,36.3052892,0,5.63718,4.54334,6.10718,28,99,14.632,36.3172892,20.215,5.63718,4.54334,-0.2,-0.5,0,248.6, -21.7, -1.8,0,0,1689,1024,1024,1024,100,0,0,0,248.31,3.75,0,59,,,,,,,15.814,18.5,36.3052892,20.203,6,P-GPS,
