time(millisecond),datetime(utc),latitude,longitude,height_above_takeoff(meters),height_above_ground_at_drone_location(meters),ground_elevation_at_drone_location(meters),altitude_above_seaLevel(meters),height_sonar(meters),speed(m/s),distance(meters),mileage(meters),satellites,gpslevel,voltage(v),max_altitude(meters),max_ascent(meters),max_speed(m/s),max_distance(meters), xSpeed(m/s), ySpeed(m/s), zSpeed(m/s), compass_heading(degrees), pitch(degrees), roll(degrees),isPhoto,isVideo,rc_elevator,rc_aileron,rc_throttle,rc_rudder,rc_elevator(percent),rc_aileron(percent),rc_throttle(percent),rc_rudder(percent),gimbal_heading(degrees),gimbal_pitch(degrees),gimbal_roll(degrees),battery_percent,voltageCell1,voltageCell2,voltageCell3,voltageCell4,voltageCell5,voltageCell6,current(A),battery_temperature(c),altitude(meters),ascent(meters),flycStateRaw,flycState,message
0,2026-01-27 15:32:40,60.1304596,24.5154969,-0.037,-0.037,16.1022892,16.0652892,0,0.001,0,0,25,96,0,16.0652892,0,0.001,0,0,0,0,215.3, 4, -2.1,0,0,1024,1024,1024,1024,0,0,0,0,215.04,-22.9,0,46,,,,,,,0,22.4,16.0652892,-0.037,6,P-GPS,
200,2026-01-27 15:32:40,60.1304596,24.5154969,-0.041,-0.041,16.1022892,16.0612892,0,0.0067082,0,0,25,96,0,16.0652892,0,0.0067082,0,0,0,0,215.5, 4, -2.1,0,0,1024,1024,1024,1024,0,0,0,0,215.04,-22.91,0,46,,,,,,,0,22.4,16.0612892,-0.041,6,P-GPS,
400,2026-01-27 15:32:40,60.1304597,24.5154969,-0.044,-0.044,16.1022892,16.0582892,0,0.0283196,0.0111206,0.0111206,25,96,0,16.0652892,0,0.0283196,0.0111206,0,0,0,215.8, 2.7, -2,0,0,1024,1024,1024,1024,0,0,0,0,215.04,-22.9,0,46,,,,,,,0,22.4,16.0582892,-0.044,6,P-GPS,
600,2026-01-27 15:32:41,60.1304598,24.5154971,-0.039,-0.039,16.1022892,16.0632892,0,0.0425441,0.0248468,0.0268165,25,96,0,16.0652892,0,0.0425441,0.0248468,0,0,0,216.1, -1.8, -1.2,0,0,1024,1024,1024,1024,0,0,0,0,215.04,-22.9,0,46,,,,,,,0,22.4,16.0632892,-0.039,6,P-GPS,
800,2026-01-27 15:32:41,60.1304597,24.5154972,-0.011,-0.011,16.1022892,16.0912892,0,0.0245153,0.0199932,0.0392399,25,96,0,16.0912892,0,0.0425441,0.0248468,0,0,0,216.7, -2.3, -0.5,0,0,1024,1024,1024,1024,0,0,0,0,215.04,-22.9,0,46,,,,,,,0,22.4,16.0912892,-0.011,6,P-GPS,
1000,2026-01-27 15:32:41,60.1304598,24.5154972,0.078,0.078,16.1022892,16.1802892,0,0.036,0.0277621,0.0503606,25,96,14.678,16.1802892,0.078,0.0425441,0.0277621,0,0,0,216.5, -0.3, 0.3,0,0,1024,1024,1024,1024,0,0,0,0,215.04,-22.9,0,46,,,,,,,6.122,22.4,16.1802892,0.078,6,P-GPS,
1200,2026-01-27 15:32:41,60.1304598,24.5154971,0.186,0.186,16.1022892,16.2882892,0,0.067897,0.0248468,0.0558989,25,92,14.678,16.2882892,0.186,0.067897,0.0277621,0,0,0.1,216.4, -0.1, -1.2,0,0,1024,1024,1024,1024,0,0,0,0,215.04,-22.9,0,46,,,,,,,6.122,22.4,16.2882892,0.186,6,P-GPS,
1400,2026-01-27 15:32:41,60.1304598,24.5154969,0.306,0.306,16.1022892,16.4082892,0,0.059808,0.0222412,0.0669756,25,92,14.678,16.4082892,0.306,0.067897,0.0277621,0,0,0.1,216.5, -0.3, -2.2,0,0,1024,1024,1024,1024,0,0,0,0,215.04,-22.9,0,46,,,,,,,6.122,22.4,16.4082892,0.306,6,P-GPS,
1600,2026-01-27 15:32:42,60.1304599,24.5154966,0.444,0.444,16.1022892,16.5462892,0,0.0371214,0.0372703,0.0869689,24,97,14.678,16.5462892,0.444,0.067897,0.0372703,0,0,0.1,216.6, 0.1, -2.8,0,0,1024,1024,1024,1024,0,0,0,0,215.04,-22.9,0,46,,,,,,,6.122,22.4,16.5462892,0.444,6,P-GPS,
1800,2026-01-27 15:32:42,60.1304599,24.5154966,0.592,0.592,16.1022892,16.6942892,0,0.0160312,0.0372703,0.0869689,24,97,14.678,16.6942892,0.592,0.067897,0.0372703,0,0,0.1,216.5, -0.1, -2.7,0,0,1024,1024,1024,1024,0,0,0,0,215.04,-22.9,0,46,,,,,,,6.122,22.4,16.6942892,0.592,6,P-GPS,
2000,2026-01-27 15:32:42,60.1304598,24.5154967,0.745,0.745,16.1022892,16.8472892,0,0.0513128,0.0248468,0.0993923,24,97,14.798,16.8472892,0.745,0.067897,0.0372703,0,0,0.1,216.6, 0.2, -1.7,0,0,1024,1024,1024,1024,0,0,0,0,215.04,-22.9,0,46,,,,,,,14.874,22.4,16.8472892,0.745,6,P-GPS,
2200,2026-01-27 15:32:42,60.1304598,24.5154966,0.884,0.884,16.1022892,16.9862892,0,0.0475079,0.0277621,0.104931,23,92,14.798,16.9862892,0.884,0.067897,0.0372703,0,0,0.1,216.7, 0.5, -1,0,0,1024,1024,1024,1024,0,0,0,0,215.04,-22.9,0,46,,,,,,,14.874,22.4,16.9862892,0.884,6,P-GPS,
2400,2026-01-27 15:32:42,60.1304597,24.5154966,1.029,1.029,16.1022892,17.1312892,0,0.0404599,0.0199932,0.116051,23,92,14.798,17.1312892,1.029,0.067897,0.0372703,0,0,0.1,216.7, 0.5, -1.3,0,0,1024,1024,1024,1024,0,0,0,0,215.04,-22.9,0,46,,,,,,,14.874,22.4,17.1312892,1.029,6,P-GPS,
2600,2026-01-27 15:32:43,60.1304597,24.5154967,1.159,1.159,16.1022892,17.2612892,0,0.0336006,0.0156959,0.12159,23,92,14.798,17.2612892,1.159,0.067897,0.0372703,0,0,0,216.7, 0.7, -1.3,0,0,1024,1024,1024,1024,0,0,0,0,215.04,-22.9,0,46,,,,,,,14.874,22.4,17.2612892,1.159,6,P-GPS,
2800,2026-01-27 15:32:43,60.1304596,24.5154969,1.26,1.26,16.1022892,17.3622892,0,0.062434,0,0.137286,23,92,14.798,17.3622892,1.26,0.067897,0.0372703,0,0,0,216.7, 0.7, -0.6,0,0,1024,1024,1024,1024,0,0,0,0,215.04,-22.9,0,46,,,,,,,14.874,22.4,17.3622892,1.26,6,P-GPS,
3000,2026-01-27 15:32:43,60.1304596,24.5154971,1.318,1.318,16.1022892,17.4202892,0,0.052,0.0110767,0.148362,23,92,14.41,17.4202892,1.318,0.067897,0.0372703,0,0,0,216.6, 0.5, 0.4,0,0,1024,1024,1024,1024,0,0,0,0,215.04,-22.9,0,46,,,,,,,14.62,22.4,17.4202892,1.318,6,P-GPS,
3200,2026-01-27 15:32:43,60.1304596,24.5154972,1.344,1.344,16.1022892,17.4462892,0,0.0280713,0.0166151,0.153901,23,86,14.41,17.4462892,1.344,0.067897,0.0372703,0,0,0,216.6, 0.5, 0.1,0,0,1024,1024,1024,1024,0,0,0,0,215.04,-22.9,0,46,,,,,,,14.62,22.4,17.4462892,1.344,6,P-GPS,
3400,2026-01-27 15:32:43,60.1304596,24.5154975,1.362,1.362,16.1022892,17.4642892,0,0.0430116,0.0332302,0.170516,23,86,14.41,17.4642892,1.362,0.067897,0.0372703,0,0,0,216.6, 0, 0.3,0,0,1024,1024,1024,1024,0,0,0,0,215.04,-22.9,0,46,,,,,,,14.62,22.4,17.4642892,1.362,6,P-GPS,
3600,2026-01-27 15:32:44,60.1304596,24.5154976,1.377,1.377,16.1022892,17.4792892,0,0.032,0.0387685,0.176054,23,86,14.41,17.4792892,1.377,0.067897,0.0387685,0,0,0,216.6, -0.3, 0.5,0,0,1024,1024,1024,1024,0,0,0,0,215.24,-22.9,0,46,,,,,,,14.62,22.4,17.4792892,1.377,6,P-GPS,
3800,2026-01-27 15:32:44,60.1304597,24.5154974,1.387,1.387,16.1022892,17.4892892,0,0.00824621,0.0298413,0.19175,24,95,14.41,17.4892892,1.387,0.067897,0.0387685,0,0,0,216.2, 0, 0,0,0,1024,1024,1024,1024,0,0,0,0,215.67,-22.9,0,46,,,,,,,14.62,22.4,17.4892892,1.387,6,P-GPS,
4000,2026-01-27 15:32:44,60.1304597,24.5154973,1.397,1.397,16.1022892,17.4992892,0,0.0214709,0.024788,0.197288,24,95,14.339,17.4992892,1.397,0.067897,0.0387685,0,0,0,215.8, -0.1, -0.4,0,0,1024,1024,1024,1024,0,0,0,0,215.57,-22.9,0,46,,,,,,,14.62,22.4,17.4992892,1.397,6,P-GPS,
4200,2026-01-27 15:32:44,60.1304597,24.5154973,1.416,1.416,16.1022892,17.5182892,0,0.0166433,0.024788,0.197288,24,95,14.339,17.5182892,1.416,0.067897,0.0387685,0,0,0,215.5, 0, -0.6,0,0,1024,1024,1024,1024,0,0,0,0,215.35,-22.9,0,46,,,,,,,14.62,22.4,17.5182892,1.416,6,P-GPS,
4400,2026-01-27 15:32:44,60.1304597,24.5154974,1.456,1.456,16.1022892,17.5582892,0,0.01,0.0298413,0.202827,24,95,14.339,17.5582892,1.456,0.067897,0.0387685,0,0,0,215.3, -0.1, -0.7,0,0,1024,1024,1024,1024,0,0,0,0,215.18,-22.9,0,46,,,,,,,14.62,22.4,17.5582892,1.456,6,P-GPS,
4600,2026-01-27 15:32:45,60.1304597,24.5154974,1.456,1.456,16.1022892,17.5582892,0,0.01,0.0298413,0.202827,24,95,14.339,17.5582892,1.456,0.067897,0.0387685,0,0,0,215.3, -0.1, -0.7,0,0,1024,1024,1024,1024,0,0,0,0,215.18,-22.9,0,46,,,,,,,14.62,22.4,17.5582892,1.456,6,P-GPS,
4800,2026-01-27 15:32:45,60.1304597,24.5154974,1.532,1.532,16.1022892,17.6342892,0,0.0067082,0.0298413,0.202827,25,97,14.339,17.6342892,1.532,0.067897,0.0387685,0,0,0.1,215.1, 0, -0.5,0,0,1024,1024,1024,1024,0,0,0,0,215.06,-22.9,0,46,,,,,,,14.62,22.4,17.6342892,1.532,6,P-GPS,
5000,2026-01-27 15:32:45,60.1304597,24.5154973,1.909,1.909,16.1022892,18.0112892,0,0.0205183,0.024788,0.208365,25,97,14.512,18.0112892,1.909,0.067897,0.0387685,0,0,0.1,215, -0.3, -1,0,0,1024,1024,1024,1024,0,0,0,0,214.91,-22.9,0,46,,,,,,,13.538,22.4,18.0112892,1.909,6,P-GPS,
5200,2026-01-27 15:32:45,60.1304597,24.5154973,2.224,2.224,16.1022892,18.3262892,0,0.0240208,0.024788,0.208365,25,96,14.512,18.3262892,2.224,0.067897,0.0387685,0,0,0.2,215, -0.1, -1.3,0,0,1024,1024,1024,1024,0,0,0,0,214.87,-22.9,0,46,,,,,,,13.538,22.4,18.3262892,2.224,6,P-GPS,
5400,2026-01-27 15:32:45,60.1304596,24.5154972,2.629,2.629,16.1022892,18.7312892,0,0.0247386,0.0166151,0.220788,25,96,14.512,18.7312892,2.629,0.067897,0.0387685,0,0,0.2,214.9, 0.1, -1.5,0,0,1024,1024,1024,1024,0,0,0,0,214.85,-22.9,0,46,,,,,,,13.538,22.4,18.7312892,2.629,6,P-GPS,
5600,2026-01-27 15:32:46,60.1304596,24.5154971,3.12,3.12,16.1022892,19.2222892,0,0.05,0.0110767,0.226327,25,96,14.512,19.2222892,3.12,0.067897,0.0387685,0,0,0.3,214.9, 0.6, -0.8,0,0,1024,1024,1024,1024,0,0,0,0,214.85,-22.9,0,46,,,,,,,13.538,22.4,19.2222892,3.12,6,P-GPS,
5800,2026-01-27 15:32:46,60.1304596,24.5154971,3.12,3.12,16.1022892,19.2222892,0,0.05,0.0110767,0.226327,24,97,14.512,19.2222892,3.12,0.067897,0.0387685,0,0,0.3,214.9, 0.6, -0.8,0,0,1024,1024,1024,1024,0,0,0,0,214.85,-22.9,0,46,,,,,,,13.538,22.4,19.2222892,3.12,6,P-GPS,
6000,2026-01-27 15:32:46,60.1304596,24.5154971,3.689,3.689,16.1022892,19.7912892,0,0.02,0.0110767,0.226327,24,97,14.4,19.7912892,3.689,0.067897,0.0387685,0,0,0.3,214.8, 1.5, -1.2,0,0,1024,1024,1024,1024,0,0,0,0,214.85,-22.89,0,46,,,,,,,15.906,22.4,19.7912892,3.689,6,P-GPS,
6200,2026-01-27 15:32:46,60.1304595,24.5154974,4.352,4.352,16.1022892,20.4542892,0,0.0684105,0.0298413,0.24632,25,94,14.4,20.4542892,4.352,0.0684105,0.0387685,0,0,0.4,214.9, 0.8, -0.5,0,0,1024,1024,1024,1024,0,0,0,0,214.86,-22.9,0,46,,,,,,,15.906,22.4,20.4542892,4.352,6,P-GPS,
6400,2026-01-27 15:32:46,60.1304595,24.5154976,5.932,5.932,16.1022892,22.0342892,0,0.01,0.040332,0.257397,25,94,14.4,22.0342892,5.932,0.0684105,0.040332,0,0,0.4,215, -0.1, 0.5,0,0,1024,1024,1024,1024,0,0,0,0,214.86,-22.9,0,46,,,,,,,15.906,22.4,22.0342892,5.932,6,P-GPS,
6600,2026-01-27 15:32:47,60.1304595,24.5154976,5.932,5.932,16.1022892,22.0342892,0,0.01,0.040332,0.257397,25,94,14.4,22.0342892,5.932,0.0684105,0.040332,0,0,0.4,215, -0.1, 0.5,0,0,1024,1024,1024,1024,0,0,0,0,214.86,-22.9,0,46,,,,,,,15.906,22.4,22.0342892,5.932,6,P-GPS,
6800,2026-01-27 15:32:47,60.1304596,24.5154975,6.839,6.839,16.1022892,22.9412892,0,0.0402616,0.0332302,0.26982,26,97,14.4,22.9412892,6.839,0.0684105,0.040332,0,0,0.5,214.9, 0.5, -0.6,0,0,1024,1024,1024,1024,0,0,0,0,214.85,-22.9,0,46,,,,,,,15.906,22.4,22.9412892,6.839,6,P-GPS,
7000,2026-01-27 15:32:47,60.1304596,24.5154972,7.785,7.785,16.1022892,23.8872892,0,0.0478539,0.0166151,0.286435,26,97,14.247,23.8872892,7.785,0.0684105,0.040332,0,0,0.5,214.9, 1.4, -1,0,0,1024,1024,1024,1024,0,0,0,0,214.85,-22.9,0,46,,,,,,,20.606,22.4,23.8872892,7.785,6,P-GPS,
7200,2026-01-27 15:32:47,60.1304596,24.515497,8.793,8.793,16.1022892,24.8952892,0,0.0290172,0.00553836,0.297512,29,97,14.247,24.8952892,8.793,0.0684105,0.040332,0,0,0.5,214.9, 1.9, -1.5,0,0,1024,1024,1024,1024,0,0,0,0,214.85,-22.9,0,46,,,,,,,20.606,22.4,24.8952892,8.793,6,P-GPS,
7400,2026-01-27 15:32:47,60.1304597,24.5154968,9.834,9.834,16.1022892,25.9362892,0,0.0294109,0.0124234,0.313208,29,97,14.247,25.9362892,9.834,0.0684105,0.040332,0,0,0.5,214.9, 1.4, -1.7,0,0,1024,1024,1024,1024,0,0,0,0,214.85,-22.9,0,46,,,,,,,20.606,22.4,25.9362892,9.834,6,P-GPS,
7600,2026-01-27 15:32:48,60.1304598,24.5154969,10.886,10.886,16.1022892,26.9882892,0,0.0432666,0.0222412,0.325631,29,97,14.247,26.9882892,10.886,0.0684105,0.040332,0,0,0.5,214.8, 0.5, -2.4,0,0,1024,1024,1024,1024,0,0,0,0,214.86,-22.89,0,46,,,,,,,20.606,22.4,26.9882892,10.886,6,P-GPS,
7800,2026-01-27 15:32:48,60.1304599,24.5154972,12.97,12.97,16.1022892,29.0722892,0,0.0523546,0.0372703,0.345625,29,99,14.247,29.0722892,12.97,0.0684105,0.040332,0,0,0.5,214.9, -0.4, -0.8,0,0,1024,1024,1024,1024,0,0,0,0,214.85,-22.9,0,46,,,,,,,20.606,22.4,29.0722892,12.97,6,P-GPS,
8000,2026-01-27 15:32:48,60.1304597,24.5154974,14.014,14.014,16.1022892,30.1162892,0,0.0603738,0.0298413,0.370471,29,99,14.192,30.1162892,14.014,0.0684105,0.040332,0,0,0.5,214.9, -0.4, -0.8,0,0,1024,1024,1024,1024,0,0,0,0,214.85,-22.9,0,46,,,,,,,23.792,22.4,30.1162892,14.014,6,P-GPS,
8200,2026-01-27 15:32:48,60.1304597,24.5154974,14.014,14.014,16.1022892,30.1162892,0,0.0603738,0.0298413,0.370471,30,99,14.192,30.1162892,14.014,0.0684105,0.040332,0,0,0.5,214.8, 0.3, -0.2,0,0,1024,1024,1024,1024,0,0,0,0,214.85,-22.9,0,46,,,,,,,23.792,22.4,30.1162892,14.014,6,P-GPS,
8400,2026-01-27 15:32:48,60.1304596,24.5154974,15.048,15.048,16.1022892,31.1502892,0,0.0543323,0.0276918,0.381592,30,99,14.192,31.1502892,15.048,0.0684105,0.040332,0,0,0.5,214.9, 1.2, 0.2,0,0,1024,1024,1024,1024,0,0,0,0,214.85,-22.9,0,46,,,,,,,23.792,22.4,31.1502892,15.048,6,P-GPS,
8600,2026-01-27 15:32:49,60.1304596,24.5154973,16.077,16.077,16.1022892,32.1792892,0,0.035805,0.0221534,0.38713,30,99,14.192,32.1792892,16.077,0.0684105,0.040332,0,0,0.5,214.9, 1.6, -0.1,0,0,1024,1024,1024,1024,0,0,0,0,214.85,-22.9,0,46,,,,,,,23.792,22.4,32.1792892,16.077,6,P-GPS,
8800,2026-01-27 15:32:49,60.1304596,24.5154972,17.099,17.099,16.1022892,33.2012892,0,0.0269258,0.0166151,0.392669,31,99,14.192,33.2012892,17.099,0.0684105,0.040332,0,0,0.5,214.9, 1.7, -0.9,0,0,1024,1024,1024,1024,0,0,0,0,214.85,-22.9,0,46,,,,,,,23.792,22.4,33.2012892,17.099,6,P-GPS,
9000,2026-01-27 15:32:49,60.1304596,24.5154971,18.106,18.106,16.1022892,34.2082892,0,0.0107703,0.0110767,0.398207,31,99,14.294,34.2082892,18.106,0.0684105,0.040332,0,0,0.5,214.9, 1.8, -1.2,0,0,1024,1024,1024,1024,0,0,0,0,214.85,-22.89,0,46,,,,,,,22.76,22.5,34.2082892,18.106,6,P-GPS,
9200,2026-01-27 15:32:49,60.1304596,24.5154971,19.128,19.128,16.1022892,35.2302892,0,0.0142127,0.0110767,0.398207,31,99,14.294,35.2302892,19.128,0.0684105,0.040332,0,0,0.5,215, 1.5, -1.1,0,0,1024,1024,1024,1024,0,0,0,0,214.81,-22.9,0,46,,,,,,,22.76,22.5,35.2302892,19.128,6,P-GPS,
9400,2026-01-27 15:32:49,60.1304596,24.515497,20.155,20.155,16.1022892,36.2572892,0,0.032249,0.00553836,0.403746,31,99,14.294,36.2572892,20.155,0.0684105,0.040332,0,0,0.5,214.9, 1.4, -1.8,0,0,1024,1024,1024,1024,0,0,0,0,214.8,-22.9,0,46,,,,,,,22.76,22.5,36.2572892,20.155,6,P-GPS,
9600,2026-01-27 15:32:50,60.1304597,24.515497,21.182,21.182,16.1022892,37.2842892,0,0.0275136,0.0124234,0.414866,31,99,14.294,37.2842892,21.182,0.0684105,0.040332,0,0,0.5,214.8, 1.6, -2.1,0,0,1024,1024,1024,1024,0,0,0,0,214.8,-22.9,0,46,,,,,,,22.76,22.5,37.2842892,21.182,6,P-GPS,
9800,2026-01-27 15:32:50,60.1304597,24.515497,22.216,22.216,16.1022892,38.3182892,0,0.005,0.0124234,0.414866,31,99,14.294,38.3182892,22.216,0.0684105,0.040332,0,0,0.5,214.9, 1.5, -2.4,0,0,1024,1024,1024,1024,0,0,0,0,214.81,-22.9,0,46,,,,,,,22.76,22.5,38.3182892,22.216,6,P-GPS,
10000,2026-01-27 15:32:50,60.1304597,24.5154971,23.239,23.239,16.1022892,39.3412892,0,0.035171,0.0156959,0.420404,31,99,14.198,39.3412892,23.239,0.0684105,0.040332,0,0,0.5,215, 1.8, -2,0,0,1024,1024,1024,1024,0,0,0,0,214.81,-22.89,0,46,,,,,,,21.734,22.5,39.3412892,23.239,6,P-GPS,
10200,2026-01-27 15:32:50,60.1304596,24.5154973,24.261,24.261,16.1022892,40.3632892,0,0.0578705,0.0221534,0.4361,31,99,14.198,40.3632892,24.261,0.0684105,0.040332,0,0,0.5,214.9, 1.1, -0.8,0,0,1024,1024,1024,1024,0,0,0,0,214.81,-22.9,0,46,,,,,,,21.734,22.5,40.3632892,24.261,6,P-GPS,
10400,2026-01-27 15:32:50,60.1304596,24.5154976,25.288,25.288,16.1022892,41.3902892,0,0.0534509,0.0387685,0.452715,31,99,14.198,41.3902892,25.288,0.0684105,0.040332,0,0,0.5,214.9, 0.9, 0,0,0,1024,1024,1024,1024,0,0,0,0,214.78,-22.9,0,46,,,,,,,21.734,22.5,41.3902892,25.288,6,P-GPS,
10600,2026-01-27 15:32:51,60.1304596,24.5154977,26.323,26.323,16.1022892,42.4252892,0,0.0246982,0.0443069,0.458254,31,99,14.198,42.4252892,26.323,0.0684105,0.0443069,0,0,0.5,214.9, 0.9, 0.4,0,0,1024,1024,1024,1024,0,0,0,0,214.78,-22.9,0,46,,,,,,,21.734,22.5,42.4252892,26.323,6,P-GPS,
10800,2026-01-27 15:32:51,60.1304596,24.5154976,27.353,27.353,16.1022892,43.4552892,0,0.0186815,0.0387685,0.463792,31,99,14.198,43.4552892,27.353,0.0684105,0.0443069,0,0,0.5,214.9, 1.2, -0.1,0,0,1024,1024,1024,1024,0,0,0,0,214.78,-22.9,0,46,,,,,,,21.734,22.5,43.4552892,27.353,6,P-GPS,
11000,2026-01-27 15:32:51,60.1304596,24.5154975,28.372,28.372,16.1022892,44.4742892,0,0.0320156,0.0332302,0.469331,31,99,14.09,44.4742892,28.372,0.0684105,0.0443069,0,0,0.5,214.9, 1.5, -0.8,0,0,1024,1024,1024,1024,0,0,0,0,214.78,-22.9,0,46,,,,,,,23.042,22.6,44.4742892,28.372,6,P-GPS,
11200,2026-01-27 15:32:51,60.1304596,24.5154973,29.4,29.4,16.1022892,45.5022892,0,0.0423792,0.0221534,0.480407,31,99,14.09,45.5022892,29.4,0.0684105,0.0443069,0,0,0.5,214.8, 1.8, -1.1,0,0,1024,1024,1024,1024,0,0,0,0,214.79,-22.89,0,46,,,,,,,23.042,22.6,45.5022892,29.4,6,P-GPS,
11400,2026-01-27 15:32:51,60.1304595,24.5154972,30.943,30.943,16.1022892,47.0452892,0,0.0230217,0.0199932,0.492831,31,99,14.09,47.0452892,30.943,0.0684105,0.0443069,0,0,0.5,214.9, 2.6, -1.2,0,0,1024,1024,1024,1024,0,0,0,0,214.8,-22.9,0,46,,,,,,,23.042,22.6,47.0452892,30.943,6,P-GPS,
11600,2026-01-27 15:32:52,60.1304595,24.5154972,31.967,31.967,16.1022892,48.0692892,0,0.00608276,0.0199932,0.492831,31,99,14.09,48.0692892,31.967,0.0684105,0.0443069,0,0,0.5,214.9, 2.4, -0.6,0,0,1024,1024,1024,1024,0,0,0,0,214.8,-22.9,0,46,,,,,,,23.042,22.6,48.0692892,31.967,6,P-GPS,
11800,2026-01-27 15:32:52,60.1304595,24.5154973,32.479,32.479,16.1022892,48.5812892,0,0.0134164,0.024788,0.498369,30,99,14.09,48.5812892,32.479,0.0684105,0.0443069,0,0,0.5,214.9, 2.2, -0.4,0,0,1024,1024,1024,1024,0,0,0,0,214.8,-22.9,0,46,,,,,,,23.042,22.6,48.5812892,32.479,6,P-GPS,
12000,2026-01-27 15:32:52,60.1304595,24.5154974,33.996,33.996,16.1022892,50.0982892,0,0.00509902,0.0298413,0.503907,30,99,14.216,50.0982892,33.996,0.0684105,0.0443069,0,0,0.5,214.8, 1.6, -0.3,0,0,1024,1024,1024,1024,0,0,0,0,214.8,-22.9,0,46,,,,,,,21.54,22.6,50.0982892,33.996,6,P-GPS,
12200,2026-01-27 15:32:52,60.1304595,24.5154974,35.02,35.02,16.1022892,51.1222892,0,0.0155563,0.0298413,0.503907,30,99,14.216,51.1222892,35.02,0.0684105,0.0443069,0,0,0.5,214.8, 2.2, -0.3,0,0,1024,1024,1024,1024,0,0,0,0,214.79,-22.9,0,46,,,,,,,21.54,22.6,51.1222892,35.02,6,P-GPS,
12400,2026-01-27 15:32:52,60.1304595,24.5154973,36.036,36.036,16.1022892,52.1382892,0,0.0304138,0.024788,0.509446,30,99,14.216,52.1382892,36.036,0.0684105,0.0443069,0,0,0.5,214.8, 2.7, -0.4,0,0,1024,1024,1024,1024,0,0,0,0,214.8,-22.9,0,46,,,,,,,21.54,22.6,52.1382892,36.036,6,P-GPS,
12600,2026-01-27 15:32:53,60.1304595,24.5154971,36.99,36.99,16.1022892,53.0922892,0,0.0246982,0.0156959,0.520523,30,99,14.216,53.0922892,36.99,0.0684105,0.0443069,0,0,0.5,214.9, 3.1, -0.6,0,0,1024,1024,1024,1024,0,0,0,0,214.8,-22.9,0,46,,,,,,,21.54,22.6,53.0922892,36.99,6,P-GPS,
12800,2026-01-27 15:32:53,60.1304595,24.515497,37.934,37.934,16.1022892,54.0362892,0,0.0197231,0.0124234,0.526061,31,99,14.216,54.0362892,37.934,0.0684105,0.0443069,0,0,0.5,214.9, 3.2, -0.8,0,0,1024,1024,1024,1024,0,0,0,0,214.8,-22.9,0,46,,,,,,,21.54,22.6,54.0362892,37.934,6,P-GPS,
13000,2026-01-27 15:32:53,60.1304596,24.515497,38.921,38.921,16.1022892,55.0232892,0,0.0332415,0.00553836,0.537181,31,99,14.127,55.0232892,38.921,0.0684105,0.0443069,0,0,0.5,214.9, 2.6, -1,0,0,1024,1024,1024,1024,0,0,0,0,214.8,-22.89,0,46,,,,,,,20.772,22.7,55.0232892,38.921,6,P-GPS,
13200,2026-01-27 15:32:53,60.1304597,24.515497,39.919,39.919,16.1022892,56.0212892,0,0.0417852,0.0124234,0.548302,31,99,14.127,56.0212892,39.919,0.0684105,0.0443069,0,0,0.5,214.8, 2, -1.3,0,0,1024,1024,1024,1024,0,0,0,0,214.8,-22.9,0,46,,,,,,,20.772,22.7,56.0212892,39.919,6,P-GPS,
13400,2026-01-27 15:32:53,60.1304598,24.5154971,40.943,40.943,16.1022892,57.0452892,0,0.0362353,0.0248468,0.560726,31,99,14.127,57.0452892,40.943,0.0684105,0.0443069,0,0,0.5,214.9, 1.3, -1.3,0,0,1024,1024,1024,1024,0,0,0,0,214.8,-22.9,0,46,,,,,,,20.772,22.7,57.0452892,40.943,6,P-GPS,
13600,2026-01-27 15:32:54,60.1304598,24.5154972,41.983,41.983,16.1022892,58.0852892,0,0.0259615,0.0277621,0.566264,31,99,14.127,58.0852892,41.983,0.0684105,0.0443069,0,0,0.5,214.9, 1.2, -0.7,0,0,1024,1024,1024,1024,0,0,0,0,214.8,-22.89,0,46,,,,,,,20.772,22.7,58.0852892,41.983,6,P-GPS,
13800,2026-01-27 15:32:54,60.1304598,24.5154974,43.012,43.012,16.1022892,59.1142892,0,0.0134164,0.0355177,0.577341,31,99,14.127,59.1142892,43.012,0.0684105,0.0443069,0,0,0.5,214.9, 1.1, -0.6,0,0,1024,1024,1024,1024,0,0,0,0,214.8,-22.9,0,46,,,,,,,20.772,22.7,59.1142892,43.012,6,P-GPS,
14000,2026-01-27 15:32:54,60.1304598,24.5154974,44.055,44.055,16.1022892,60.1572892,0,0.0113137,0.0355177,0.577341,31,99,14.227,60.1572892,44.055,0.0684105,0.0443069,0,0,0.5,214.8, 1, -0.7,0,0,1024,1024,1024,1024,0,0,0,0,214.8,-22.9,0,46,,,,,,,20.896,22.7,60.1572892,44.055,6,P-GPS,
14200,2026-01-27 15:32:54,60.1304598,24.5154974,45.08,45.08,16.1022892,61.1822892,0,0.02,0.0355177,0.577341,31,99,14.227,61.1822892,45.08,0.0684105,0.0443069,0,0,0.5,214.9, 1.5, -1,0,0,1024,1024,1024,1024,0,0,0,0,214.8,-22.9,0,46,,,,,,,20.896,22.7,61.1822892,45.08,6,P-GPS,
14400,2026-01-27 15:32:54,60.1304598,24.5154973,46.112,46.112,16.1022892,62.2142892,0,0.019105,0.0313918,0.582879,31,99,14.227,62.2142892,46.112,0.0684105,0.0443069,0,0,0.5,214.9, 1.7, -0.9,0,0,1024,1024,1024,1024,0,0,0,0,214.8,-22.9,0,46,,,,,,,20.896,22.7,62.2142892,46.112,6,P-GPS,
14600,2026-01-27 15:32:55,60.1304597,24.5154973,47.139,47.139,16.1022892,63.2412892,0,0.0114018,0.024788,0.594,31,99,14.227,63.2412892,47.139,0.0684105,0.0443069,0,0,0.5,214.9, 1.5, -0.9,0,0,1024,1024,1024,1024,0,0,0,0,214.8,-22.9,0,46,,,,,,,20.896,22.7,63.2412892,47.139,6,P-GPS,
14800,2026-01-27 15:32:55,60.1304597,24.5154973,48.173,48.173,16.1022892,64.2752892,0,0.0100499,0.024788,0.594,31,99,14.227,64.2752892,48.173,0.0684105,0.0443069,0,0,0.5,214.9, 1.3, -1,0,0,1024,1024,1024,1024,0,0,0,0,214.8,-22.89,0,45,,,,,,,20.896,22.7,64.2752892,48.173,6,P-GPS,
15000,2026-01-27 15:32:55,60.1304597,24.5154973,49.204,49.204,16.1022892,65.3062892,0,0.0247386,0.024788,0.594,31,99,14.227,65.3062892,49.204,0.0684105,0.0443069,0,0,0.5,214.8, 1.4, -1.3,0,0,1024,1024,1024,1024,0,0,0,0,214.8,-22.9,0,45,,,,,,,21.776,22.7,65.3062892,49.204,6,P-GPS,
15200,2026-01-27 15:32:55,60.1304597,24.5154972,50.234,50.234,16.1022892,66.3362892,0,0.0206155,0.0199932,0.599538,30,99,14.227,66.3362892,50.234,0.0684105,0.0443069,0,0,0.5,214.9, 1.2, -1.7,0,0,1024,1024,1024,1024,0,0,0,0,214.8,-22.9,0,45,,,,,,,21.776,22.7,66.3362892,50.234,6,P-GPS,
15400,2026-01-27 15:32:55,60.1304597,24.5154971,51.281,51.281,16.1022892,67.3832892,0,0.019105,0.0156959,0.605076,30,99,14.227,67.3832892,51.281,0.0684105,0.0443069,0,0,0.5,214.9, 1.4, -1.7,0,0,1024,1024,1024,1024,0,0,0,0,214.8,-22.9,0,45,,,,,,,21.776,22.7,67.3832892,51.281,6,P-GPS,
15600,2026-01-27 15:32:56,60.1304597,24.5154971,52.314,52.314,16.1022892,68.4162892,0,0.0136015,0.0156959,0.605076,30,99,14.227,68.4162892,52.314,0.0684105,0.0443069,0,0,0.5,214.9, 1.5, -1.4,0,0,1024,1024,1024,1024,0,0,0,0,214.8,-22.9,0,45,,,,,,,21.776,22.7,68.4162892,52.314,6,P-GPS,
15800,2026-01-27 15:32:56,60.1304597,24.5154972,53.341,53.341,16.1022892,69.4432892,0,0.0286007,0.0199932,0.610615,31,99,14.227,69.4432892,53.341,0.0684105,0.0443069,0,0,0.5,214.9, 1.3, -0.9,0,0,1024,1024,1024,1024,0,0,0,0,214.8,-22.9,0,45,,,,,,,21.776,22.7,69.4432892,53.341,6,P-GPS,
16000,2026-01-27 15:32:56,60.1304597,24.5154973,54.403,54.403,16.1022892,70.5052892,0,0.0283196,0.024788,0.616153,31,99,14.315,70.5052892,54.403,0.0684105,0.0443069,0,0,0.5,214.9, 1.2, -0.4,0,0,1024,1024,1024,1024,0,0,0,0,214.8,-22.9,0,45,,,,,,,21.536,22.8,70.5052892,54.403,6,P-GPS,
16200,2026-01-27 15:32:56,60.1304596,24.5154974,55.452,55.452,16.1022892,71.5542892,0,0.0272029,0.0276918,0.628576,32,99,14.315,71.5542892,55.452,0.0684105,0.0443069,0,0,0.5,214.8, 1.1, -0.2,0,0,1024,1024,1024,1024,0,0,0,0,214.8,-22.9,0,45,,,,,,,21.536,22.8,71.5542892,55.452,6,P-GPS,
16400,2026-01-27 15:32:56,60.1304595,24.5154974,56.481,56.481,16.1022892,72.5832892,0,0.0291548,0.0298413,0.639697,32,99,14.315,72.5832892,56.481,0.0684105,0.0443069,0,0,0.5,214.8, 1.6, 0,0,0,1024,1024,1024,1024,0,0,0,0,214.8,-22.9,0,45,,,,,,,21.536,22.8,72.5832892,56.481,6,P-GPS,
16600,2026-01-27 15:32:57,60.1304595,24.5154973,57.508,57.508,16.1022892,73.6102892,0,0.0156205,0.024788,0.645235,32,99,14.315,73.6102892,57.508,0.0684105,0.0443069,0,0,0.5,214.8, 2.2, 0,0,0,1024,1024,1024,1024,0,0,0,0,214.8,-22.9,0,45,,,,,,,21.536,22.8,73.6102892,57.508,6,P-GPS,
16800,2026-01-27 15:32:57,60.1304595,24.5154973,58.519,58.519,16.1022892,74.6212892,0,0.0166433,0.024788,0.645235,32,99,14.315,74.6212892,58.519,0.0684105,0.0443069,0,0,0.5,214.8, 1.6, -0.3,0,0,1024,1024,1024,1024,0,0,0,0,214.82,-22.89,0,45,,,,,,,21.536,22.8,74.6212892,58.519,6,P-GPS,
17000,2026-01-27 15:32:57,60.1304595,24.5154972,59.565,59.565,16.1022892,75.6672892,0,0.0230868,0.0199932,0.650774,32,99,14.219,75.6672892,59.565,0.0684105,0.0443069,0,0,0.5,214.9, 1.6, -0.6,0,0,1024,1024,1024,1024,0,0,0,0,214.82,-22.9,0,45,,,,,,,20.566,22.8,75.6672892,59.565,6,P-GPS,
17200,2026-01-27 15:32:57,60.1304595,24.5154971,60.609,60.609,16.1022892,76.7112892,0,0.0320624,0.0156959,0.656312,32,99,14.219,76.7112892,60.609,0.0684105,0.0443069,0,0,0.5,214.9, 1.9, -0.8,0,0,1024,1024,1024,1024,0,0,0,0,214.82,-22.9,0,45,,,,,,,20.566,22.8,76.7112892,60.609,6,P-GPS,
17400,2026-01-27 15:32:57,60.1304595,24.515497,61.664,61.664,16.1022892,77.7662892,0,0.039,0.0124234,0.661851,32,99,14.219,77.7662892,61.664,0.0684105,0.0443069,0,0,0.5,214.9, 2.4, -0.8,0,0,1024,1024,1024,1024,0,0,0,0,214.82,-22.89,0,45,,,,,,,20.566,22.8,77.7662892,61.664,6,P-GPS,
17600,2026-01-27 15:32:58,60.1304595,24.5154968,62.719,62.719,16.1022892,78.8212892,0,0.0305941,0.0124234,0.672927,32,99,14.219,78.8212892,62.719,0.0684105,0.0443069,0,0,0.5,214.9, 3.1, -1,0,0,1024,1024,1024,1024,0,0,0,0,214.82,-22.89,0,45,,,,,,,20.566,22.8,78.8212892,62.719,6,P-GPS,
17800,2026-01-27 15:32:58,60.1304595,24.5154968,63.751,63.751,16.1022892,79.8532892,0,0.0216333,0.0124234,0.672927,32,99,14.219,79.8532892,63.751,0.0684105,0.0443069,0,0,0.5,214.9, 3.1, -1.2,0,0,1024,1024,1024,1024,0,0,0,0,214.82,-22.89,0,45,,,,,,,20.566,22.8,79.8532892,63.751,6,P-GPS,
18000,2026-01-27 15:32:58,60.1304595,24.5154967,64.793,64.793,16.1022892,80.8952892,0,0.0152315,0.0156959,0.678466,32,99,14.106,80.8952892,64.793,0.0684105,0.0443069,0,0,0.5,214.9, 2.8, -1.4,0,0,1024,1024,1024,1024,0,0,0,0,214.82,-22.9,0,45,,,,,,,20.26,22.9,80.8952892,64.793,6,P-GPS,
18200,2026-01-27 15:32:58,60.1304595,24.5154967,65.82,65.82,16.1022892,81.9222892,0,0.0215407,0.0156959,0.678466,31,99,14.106,81.9222892,65.82,0.0684105,0.0443069,0,0,0.5,214.9, 2.6, -1.5,0,0,1024,1024,1024,1024,0,0,0,0,214.82,-22.9,0,45,,,,,,,20.26,22.9,81.9222892,65.82,6,P-GPS,
18400,2026-01-27 15:32:58,60.1304596,24.5154968,66.857,66.857,16.1022892,82.9592892,0,0.0286007,0.00553836,0.690889,31,99,14.106,82.9592892,66.857,0.0684105,0.0443069,0,0,0.5,214.9, 2.2, -1.2,0,0,1024,1024,1024,1024,0,0,0,0,214.82,-22.89,0,45,,,,,,,20.26,22.9,82.9592892,66.857,6,P-GPS,
18600,2026-01-27 15:32:59,60.1304596,24.5154969,67.898,67.898,16.1022892,84.0002892,0,0.0295466,0,0.696427,31,99,14.106,84.0002892,67.898,0.0684105,0.0443069,0,0,0.5,214.9, 1.9, -0.9,0,0,1024,1024,1024,1024,0,0,0,0,214.82,-22.9,0,45,,,,,,,20.26,22.9,84.0002892,67.898,6,P-GPS,
18800,2026-01-27 15:32:59,60.1304597,24.515497,68.916,68.916,16.1022892,85.0182892,0,0.0215407,0.0124234,0.708851,32,99,14.106,85.0182892,68.916,0.0684105,0.0443069,0,0,0.5,214.8, 1.6, -0.7,0,0,1024,1024,1024,1024,0,0,0,0,214.82,-22.9,0,45,,,,,,,20.26,22.9,85.0182892,68.916,6,P-GPS,
19000,2026-01-27 15:32:59,60.1304597,24.5154971,69.942,69.942,16.1022892,86.0442892,0,0.0145602,0.0156959,0.714389,32,99,14.255,86.0442892,69.942,0.0684105,0.0443069,0,0,0.5,214.9, 1.6, -0.6,0,0,1024,1024,1024,1024,0,0,0,0,214.85,-22.9,0,45,,,,,,,19.668,23,86.0442892,69.942,6,P-GPS,
19200,2026-01-27 15:32:59,60.1304597,24.5154972,70.96,70.96,16.1022892,87.0622892,0,0.015,0.0199932,0.719927,32,99,14.255,87.0622892,70.96,0.0684105,0.0443069,0,0,0.5,214.9, 1.6, -0.5,0,0,1024,1024,1024,1024,0,0,0,0,214.85,-22.9,0,45,,,,,,,19.668,23,87.0622892,70.96,6,P-GPS,
19400,2026-01-27 15:32:59,60.1304597,24.5154973,71.977,71.977,16.1022892,88.0792892,0,0.0111803,0.024788,0.725466,32,99,14.255,88.0792892,71.977,0.0684105,0.0443069,0,0,0.5,214.9, 1.4, -0.2,0,0,1024,1024,1024,1024,0,0,0,0,214.85,-22.89,0,45,,,,,,,19.668,23,88.0792892,71.977,6,P-GPS,
19600,2026-01-27 15:33:00,60.1304597,24.5154974,72.991,72.991,16.1022892,89.0932892,0,0.00412311,0.0298413,0.731004,32,99,14.255,89.0932892,72.991,0.0684105,0.0443069,0,0,0.5,215, 1.2, -0.2,0,0,1024,1024,1024,1024,0,0,0,0,214.85,-22.9,0,45,,,,,,,19.668,23,89.0932892,72.991,6,P-GPS,
19800,2026-01-27 15:33:00,60.1304597,24.5154973,73.977,73.977,16.1022892,90.0792892,0,0.014,0.024788,0.736543,31,99,14.255,90.0792892,73.977,0.0684105,0.0443069,0,0,0.5,214.9, 1.1, -0.5,0,0,1024,1024,1024,1024,0,0,0,0,214.85,-22.9,0,45,,,,,,,19.668,23,90.0792892,73.977,6,P-GPS,
20000,2026-01-27 15:33:00,60.1304597,24.5154973,74.912,74.912,16.1022892,91.0142892,0,0.0215407,0.024788,0.736543,31,99,14.254,91.0142892,74.912,0.0684105,0.0443069,0,0,0.4,214.9, 0.9, -0.4,0,0,1024,1024,1024,1024,0,0,0,0,214.85,-22.9,0,45,,,,,,,20.906,23,91.0142892,74.912,6,P-GPS,
20200,2026-01-27 15:33:00,60.1304597,24.5154972,75.743,75.743,16.1022892,91.8452892,0,0.0261725,0.0199932,0.742081,31,99,14.254,91.8452892,75.743,0.0684105,0.0443069,0,0,0.4,214.9, 1.2, -0.5,0,0,1024,1024,1024,1024,0,0,0,0,214.85,-22.9,0,45,,,,,,,20.906,23,91.8452892,75.743,6,P-GPS,
20400,2026-01-27 15:33:00,60.1304597,24.5154972,76.475,76.475,16.1022892,92.5772892,0,0.0174929,0.0199932,0.742081,31,99,14.254,92.5772892,76.475,0.0684105,0.0443069,0,0,0.3,214.8, 1.2, -0.3,0,0,1024,1024,1024,1024,0,0,0,0,214.85,-22.89,0,45,,,,,,,20.906,23,92.5772892,76.475,6,P-GPS,
20600,2026-01-27 15:33:01,60.1304597,24.5154971,77.096,77.096,16.1022892,93.1982892,0,0.0160312,0.0156959,0.747619,31,99,14.254,93.1982892,77.096,0.0684105,0.0443069,0,0,0.2,214.8, 1, -0.2,0,0,1024,1024,1024,1024,0,0,0,0,214.85,-22.9,0,45,,,,,,,20.906,23,93.1982892,77.096,6,P-GPS,
20800,2026-01-27 15:33:01,60.1304596,24.5154972,77.614,77.614,16.1022892,93.7162892,0,0.0264197,0.0166151,0.760043,30,99,14.254,93.7162892,77.614,0.0684105,0.0443069,0,0,0.2,214.8, 0.8, 0.3,0,0,1024,1024,1024,1024,0,0,0,0,214.86,-22.89,0,45,,,,,,,20.906,23,93.7162892,77.614,6,P-GPS,
21000,2026-01-27 15:33:01,60.1304596,24.5154973,78.078,78.078,16.1022892,94.1802892,0,0.0297321,0.0221534,0.765581,30,99,14.511,94.1802892,78.078,0.0684105,0.0443069,0,0,0.2,214.8, 0.8, 1,0,0,1024,1024,1024,1024,0,0,0,0,214.86,-22.9,0,45,,,,,,,20.092,23.1,94.1802892,78.078,6,P-GPS,
21200,2026-01-27 15:33:01,60.1304595,24.5154974,78.473,78.473,16.1022892,94.5752892,0,0.0228473,0.0298413,0.778005,31,99,14.511,94.5752892,78.473,0.0684105,0.0443069,0,0,0.1,214.9, 0.7, 1.5,0,0,1024,1024,1024,1024,0,0,0,0,214.88,-22.9,0,45,,,,,,,20.092,23.1,94.5752892,78.473,6,P-GPS,
21400,2026-01-27 15:33:01,60.1304595,24.5154974,78.823,78.823,16.1022892,94.9252892,0,0.0140357,0.0298413,0.778005,31,99,14.511,94.9252892,78.823,0.0684105,0.0443069,0,0,0.1,214.9, 0.8, 1.6,0,0,1024,1024,1024,1024,0,0,0,0,214.88,-22.9,0,45,,,,,,,20.092,23.1,94.9252892,78.823,6,P-GPS,
21600,2026-01-27 15:33:02,60.1304595,24.5154974,79.138,79.138,16.1022892,95.2402892,0,0.02,0.0298413,0.778005,31,99,14.511,95.2402892,79.138,0.0684105,0.0443069,0,0,0.1,215, 0.9, 1.5,0,0,1024,1024,1024,1024,0,0,0,0,214.88,-22.9,0,45,,,,,,,20.092,23.1,95.2402892,79.138,6,P-GPS,
21800,2026-01-27 15:33:02,60.1304595,24.5154973,79.404,79.404,16.1022892,95.5062892,0,0.0272029,0.024788,0.783543,30,99,14.511,95.5062892,79.404,0.0684105,0.0443069,0,0,0.1,214.9, 1.2, 1.1,0,0,1024,1024,1024,1024,0,0,0,0,214.87,-22.9,0,45,,,,,,,20.092,23.1,95.5062892,79.404,6,P-GPS,
22000,2026-01-27 15:33:02,60.1304595,24.5154971,79.639,79.639,16.1022892,95.7412892,0,0.0220907,0.0156959,0.79462,30,99,14.363,95.7412892,79.639,0.0684105,0.0443069,0,0,0.1,214.8, 1.3, 1,0,0,1024,1024,1024,1024,0,0,0,0,214.86,-22.9,0,45,,,,,,,11.854,23.1,95.7412892,79.639,6,P-GPS,
22200,2026-01-27 15:33:02,60.1304595,24.515497,79.825,79.825,16.1022892,95.9272892,0,0.0210238,0.0124234,0.800158,31,99,14.363,95.9272892,79.825,0.0684105,0.0443069,0,0,0.1,214.8, 1.2, 0.7,0,0,1024,1024,1024,1024,0,0,0,0,214.86,-22.9,0,45,,,,,,,11.854,23.1,95.9272892,79.825,6,P-GPS,
22400,2026-01-27 15:33:02,60.1304595,24.5154969,79.965,79.965,16.1022892,96.0672892,0,0.019105,0.0111206,0.805696,31,99,14.363,96.0672892,79.965,0.0684105,0.0443069,0,0,0,214.8, 1, 0.7,0,0,1024,1024,1024,1024,0,0,0,0,214.86,-22.9,0,45,,,,,,,11.854,23.1,96.0672892,79.965,6,P-GPS,
22600,2026-01-27 15:33:03,60.1304595,24.5154969,80.059,80.059,16.1022892,96.1612892,0,0.0151327,0.0111206,0.805696,31,99,14.363,96.1612892,80.059,0.0684105,0.0443069,0,0,0,214.6, 1.3, 0.8,0,0,1024,1024,1024,1024,0,0,0,0,214.7,-22.9,0,45,,,,,,,11.854,23.1,96.1612892,80.059,6,P-GPS,
22800,2026-01-27 15:33:03,60.1304596,24.5154968,80.111,80.111,16.1022892,96.2132892,0,0.0303645,0.00553836,0.81812,31,99,14.363,96.2132892,80.111,0.0684105,0.0443069,0,0,0,206.3, 1.4, 0.8,0,0,1024,1024,1024,1024,0,0,0,0,207.73,-22.89,0,45,,,,,,,11.854,23.1,96.2132892,80.111,6,P-GPS,
23000,2026-01-27 15:33:03,60.1304596,24.5154967,80.129,80.129,16.1022892,96.2312892,0,0.0244131,0.0110767,0.823658,31,99,14.465,96.2312892,80.129,0.0684105,0.0443069,0,0,0,195.2, 1.2, -0.4,0,0,1024,1024,1024,1024,0,0,0,0,197.04,-22.9,0,45,,,,,,,12.912,23.2,96.2312892,80.129,6,P-GPS,
23200,2026-01-27 15:33:03,60.1304596,24.5154969,80.117,80.117,16.1022892,96.2192892,0,0.0180278,0,0.834735,31,99,14.465,96.2312892,80.129,0.0684105,0.0443069,0,0,0,186.3, 1.1, 0,0,0,1024,1024,1024,1024,0,0,0,0,187.59,-22.9,0,45,,,,,,,12.912,23.2,96.2192892,80.117,6,P-GPS,
23400,2026-01-27 15:33:03,60.1304596,24.5154969,80.081,80.081,16.1022892,96.1832892,0,0.0206155,0,0.834735,31,99,14.465,96.2312892,80.129,0.0684105,0.0443069,0,0,0,179.9, 0.9, 0.3,0,0,1024,1024,1024,1024,0,0,0,0,181.13,-22.9,0,45,,,,,,,12.912,23.2,96.1832892,80.081,6,P-GPS,
23600,2026-01-27 15:33:04,60.1304596,24.5154967,80.026,80.026,16.1022892,96.1282892,0,0.0354401,0.0110767,0.845812,31,99,14.465,96.2312892,80.129,0.0684105,0.0443069,0,0,0,176, 0.6, -0.6,0,0,1024,1024,1024,1024,0,0,0,0,176.44,-22.9,0,45,,,,,,,12.912,23.2,96.1282892,80.026,6,P-GPS,
23800,2026-01-27 15:33:04,60.1304596,24.5154965,79.971,79.971,16.1022892,96.0732892,0,0.0301496,0.0221534,0.856888,31,99,14.465,96.2312892,80.129,0.0684105,0.0443069,0,0,0,173.5, 0.4, -1.2,0,0,1024,1024,1024,1024,0,0,0,0,173.62,-22.9,0,45,,,,,,,12.912,23.2,96.0732892,79.971,6,P-GPS,
24000,2026-01-27 15:33:04,60.1304596,24.5154963,79.916,79.916,16.1022892,96.0182892,0,0.0422019,0.0332302,0.867965,31,99,14.569,96.2312892,80.129,0.0684105,0.0443069,0,0,0,171.9, -1.1, -1.6,0,0,1024,1024,1024,1024,0,0,0,0,171.89,-22.9,0,45,,,,,,,12.39,23.2,96.0182892,79.916,6,P-GPS,
24200,2026-01-27 15:33:04,60.1304595,24.5154961,79.875,79.875,16.1022892,95.9772892,0,0.129035,0.0456812,0.883661,31,99,14.569,96.2312892,80.129,0.129035,0.0456812,0,0,0,170.8, -4.3, -2.1,0,0,1024,1024,1024,1024,0,0,0,0,170.73,-22.9,0,45,,,,,,,12.39,23.2,95.9772892,79.875,6,P-GPS,
24400,2026-01-27 15:33:04,60.130459,24.5154963,79.85,79.85,16.1022892,95.9522892,0,0.348111,0.0745405,0.940357,31,99,14.569,96.2312892,80.129,0.348111,0.0745405,0,0,0,170.1, -8.2, -2.2,0,0,1024,1024,1024,1024,0,0,0,0,170.01,-22.9,0,45,,,,,,,12.39,23.2,95.9522892,79.85,6,P-GPS,
24600,2026-01-27 15:33:05,60.130458,24.515497,79.835,79.835,16.1022892,95.9372892,0,0.7036,0.178016,1.05813,31,99,14.569,96.2312892,80.129,0.7036,0.178016,-0.1,0,0,169.5, -11.7, -1.8,0,0,1024,1024,1024,1024,0,0,0,0,169.51,-22.9,0,45,,,,,,,12.39,23.2,95.9372892,79.835,6,P-GPS,
24800,2026-01-27 15:33:05,60.1304562,24.5154981,79.831,79.831,16.1022892,95.9332892,0,1.16914,0.383897,1.26736,31,97,14.569,96.2312892,80.129,1.16914,0.383897,-0.1,0,0,169.2, -13.8, -0.9,0,0,1024,1024,1024,1024,0,0,0,0,169.34,-22.9,0,45,,,,,,,12.39,23.2,95.9332892,79.831,6,P-GPS,
25000,2026-01-27 15:33:05,60.1304535,24.5154997,79.83,79.83,16.1022892,95.9322892,0,1.6864,0.695857,1.58042,31,97,14.229,96.2312892,80.129,1.6864,0.695857,-0.2,0,0,169, -15.1, 0.2,0,0,1024,1024,1024,1024,0,0,0,0,169.14,-22.9,0,45,,,,,,,12.732,23.2,95.9322892,79.83,6,P-GPS,
25200,2026-01-27 15:33:05,60.1304499,24.5155018,79.834,79.834,16.1022892,95.9362892,0,2.21689,1.11231,1.99732,31,98,14.229,96.2312892,80.129,2.21689,1.11231,-0.2,0.1,0,169, -15.3, 1.1,0,0,1024,1024,1024,1024,0,0,0,0,169.08,-22.9,0,45,,,,,,,12.732,23.2,95.9362892,79.834,6,P-GPS,
25400,2026-01-27 15:33:05,60.1304454,24.5155041,79.84,79.84,16.1022892,95.9422892,0,2.72326,1.6287,2.5137,31,98,14.229,96.2312892,80.129,2.72326,1.6287,-0.3,0.1,0,168.6, -15.7, 1.5,0,0,1024,1024,1024,1024,0,0,0,0,169.08,-22.9,0,45,,,,,,,12.732,23.2,95.9422892,79.84,6,P-GPS,
25600,2026-01-27 15:33:06,60.1304401,24.5155066,79.849,79.849,16.1022892,95.9512892,0,3.22129,2.23407,3.11914,31,98,14.229,96.2312892,80.129,3.22129,2.23407,-0.3,0.1,0,168, -15.1, 1.9,0,0,1024,1024,1024,1024,0,0,0,0,169.17,-22.9,0,45,,,,,,,12.732,23.2,95.9512892,79.849,6,P-GPS,
25800,2026-01-27 15:33:06,60.1304341,24.5155091,79.857,79.857,16.1022892,95.9592892,0,3.61945,2.91514,3.80059,31,99,14.229,96.2312892,80.129,3.61945,2.91514,-0.4,0.1,0,168.7, -11.5, 1.5,0,0,1024,1024,1024,1024,0,0,0,0,169.45,-22.9,0,45,,,,,,,12.732,23.2,95.9592892,79.857,6,P-GPS,
26000,2026-01-27 15:33:06,60.1304273,24.5155114,79.862,79.862,16.1022892,95.9642892,0,3.85462,3.68063,4.56745,31,99,14.091,96.2312892,80.129,3.85462,3.68063,-0.4,0.1,0,169, -5.4, -0.9,0,0,1024,1024,1024,1024,0,0,0,0,169.61,-22.9,0,45,,,,,,,14.208,23.2,95.9642892,79.862,6,P-GPS,
26200,2026-01-27 15:33:06,60.1304204,24.5155137,79.86,79.86,16.1022892,95.9622892,0,3.82828,4.45747,5.34527,31,99,14.091,96.2312892,80.129,3.85462,4.45747,-0.4,0.1,0,169.9, 2.1, -0.7,0,0,1024,1024,1024,1024,0,0,0,0,169.65,-22.9,0,45,,,,,,,14.208,23.2,95.9622892,79.86,6,P-GPS,
26400,2026-01-27 15:33:06,60.130414,24.5155159,79.86,79.86,16.1022892,95.9622892,0,3.565,5.17903,6.06734,31,99,14.091,96.2312892,80.129,3.85462,5.17903,-0.4,0.1,0,169.8, 7.5, -0.4,0,0,1024,1024,1024,1024,0,0,0,0,169.51,-22.9,0,45,,,,,,,14.208,23.2,95.9622892,79.86,6,P-GPS,
26600,2026-01-27 15:33:07,60.1304081,24.5155177,79.865,79.865,16.1022892,95.9672892,0,3.17456,5.84182,6.73099,31,99,14.091,96.2312892,80.129,3.85462,5.84182,-0.3,0.1,0,169.5, 10.2, -0.7,0,0,1024,1024,1024,1024,0,0,0,0,169.27,-22.9,0,45,,,,,,,14.208,23.2,95.9672892,79.865,6,P-GPS,
26800,2026-01-27 15:33:07,60.1304032,24.515519,79.87,79.87,16.1022892,95.9722892,0,2.74654,6.39034,7.28063,30,99,14.091,96.2312892,80.129,3.85462,6.39034,-0.3,0,0,168.9, 10, -1.4,0,0,1024,1024,1024,1024,0,0,0,0,169.09,-22.9,0,45,,,,,,,14.208,23.2,95.9722892,79.87,6,P-GPS,
27000,2026-01-27 15:33:07,60.1303988,24.5155199,79.871,79.871,16.1022892,95.9732892,0,2.36199,6.88028,7.77247,30,99,14.294,96.2312892,80.129,3.85462,6.88028,-0.2,0,0,168.5, 8.2, -2.7,0,0,1024,1024,1024,1024,0,0,0,0,169.09,-22.9,0,45,,,,,,,14.554,23.2,95.9732892,79.871,6,P-GPS,
27200,2026-01-27 15:33:07,60.1303948,24.5155206,79.873,79.873,16.1022892,95.9752892,0,2.08046,7.32472,8.21898,30,99,14.294,96.2312892,80.129,3.85462,7.32472,-0.2,0,0,168.5, 5.4, -3.7,0,0,1024,1024,1024,1024,0,0,0,0,169.2,-22.9,0,45,,,,,,,14.554,23.2,95.9752892,79.873,6,P-GPS,
27400,2026-01-27 15:33:07,60.1303913,24.5155216,79.877,79.877,16.1022892,95.9792892,0,1.89453,7.71758,8.61213,30,99,14.294,96.2312892,80.129,3.85462,7.71758,-0.2,0,0,168.9, 2.7, -3.6,0,0,1024,1024,1024,1024,0,0,0,0,169.36,-22.91,0,45,,,,,,,14.554,23.2,95.9792892,79.877,6,P-GPS,
27600,2026-01-27 15:33:08,60.130388,24.5155228,79.884,79.884,16.1022892,95.9862892,0,1.79644,8.09053,8.98508,30,99,14.294,96.2312892,80.129,3.85462,8.09053,-0.2,0,0,169.1, 1.2, -3,0,0,1024,1024,1024,1024,0,0,0,0,169.41,-22.9,0,45,,,,,,,14.554,23.2,95.9862892,79.884,6,P-GPS,
27800,2026-01-27 15:33:08,60.130385,24.5155241,79.894,79.894,16.1022892,95.9962892,0,1.73818,8.43164,9.32638,30,99,14.294,96.2312892,80.129,3.85462,8.43164,-0.2,0,0,169.3, 1.5, -2.2,0,0,1024,1024,1024,1024,0,0,0,0,169.39,-22.9,0,45,,,,,,,14.554,23.2,95.9962892,79.894,6,P-GPS,
28000,2026-01-27 15:33:08,60.130382,24.5155256,79.907,79.907,16.1022892,96.0092892,0,1.67034,8.77476,9.67018,30,99,14.23,96.2312892,80.129,3.85462,8.77476,-0.2,0,0,169.2, 2.5, -1.4,0,0,1024,1024,1024,1024,0,0,0,0,169.22,-22.9,0,45,,,,,,,13.612,23.2,96.0092892,79.907,6,P-GPS,
28200,2026-01-27 15:33:08,60.1303792,24.515527,79.922,79.922,16.1022892,96.0242892,0,1.54475,9.09505,9.99107,30,99,14.23,96.2312892,80.129,3.85462,9.09505,-0.1,0,0,169.1, 4.6, -0.9,0,0,1024,1024,1024,1024,0,0,0,0,169.1,-22.9,0,45,,,,,,,13.612,23.2,96.0242892,79.922,6,P-GPS,
28400,2026-01-27 15:33:08,60.1303767,24.5155284,79.936,79.936,16.1022892,96.0382892,0,1.35319,9.3826,10.2797,30,99,14.23,96.2312892,80.129,3.85462,9.3826,-0.1,0,0,169.1, 6.4, -0.5,0,0,1024,1024,1024,1024,0,0,0,0,169.09,-22.9,0,45,,,,,,,13.612,23.2,96.0382892,79.936,6,P-GPS,
28600,2026-01-27 15:33:09,60.1303747,24.5155295,79.945,79.945,16.1022892,96.0472892,0,1.10915,9.61248,10.5103,30,99,14.23,96.2312892,80.129,3.85462,9.61248,-0.1,0,0,169.1, 7.5, -0.3,0,0,1024,1024,1024,1024,0,0,0,0,169.1,-22.9,0,45,,,,,,,13.612,23.2,96.0472892,79.945,6,P-GPS,
28800,2026-01-27 15:33:09,60.1303731,24.5155303,79.955,79.955,16.1022892,96.0572892,0,0.852031,9.79557,10.6937,30,99,14.23,96.2312892,80.129,3.85462,9.79557,-0.1,0,0,169.1, 7.8, -0.4,0,0,1024,1024,1024,1024,0,0,0,0,169.13,-22.9,0,45,,,,,,,13.612,23.2,96.0572892,79.955,6,P-GPS,
29000,2026-01-27 15:33:09,60.1303719,24.5155309,79.963,79.963,16.1022892,96.0652892,0,0.620893,9.9329,10.8312,30,99,14.301,96.2312892,80.129,3.85462,9.9329,-0.1,0,0,169.2, 7.1, -0.7,0,0,1024,1024,1024,1024,0,0,0,0,169.13,-22.9,0,45,,,,,,,14.182,23.2,96.0652892,79.963,6,P-GPS,
29200,2026-01-27 15:33:09,60.1303711,24.5155314,79.968,79.968,16.1022892,96.0702892,0,0.414267,10.0255,10.9244,30,99,14.301,96.2312892,80.129,3.85462,10.0255,0,0,0,169.2, 6.4, -0.8,0,0,1024,1024,1024,1024,0,0,0,0,169.13,-22.9,0,45,,,,,,,14.182,23.2,96.0702892,79.968,6,P-GPS,
29400,2026-01-27 15:33:09,60.1303706,24.5155316,79.97,79.97,16.1022892,96.0722892,0,0.237844,10.0822,10.9811,30,99,14.301,96.2312892,80.129,3.85462,10.0822,0,0,0,169.2, 5.7, -0.6,0,0,1024,1024,1024,1024,0,0,0,0,169.13,-22.9,0,45,,,,,,,14.182,23.2,96.0722892,79.97,6,P-GPS,
29600,2026-01-27 15:33:10,60.1303703,24.5155319,79.973,79.973,16.1022892,96.0752892,0,0.123065,10.1181,11.0183,30,99,14.301,96.2312892,80.129,3.85462,10.1181,0,0,0,169.1, 4.5, -0.4,0,0,1024,1024,1024,1024,0,0,0,0,169.13,-22.9,0,45,,,,,,,14.182,23.2,96.0752892,79.973,6,P-GPS,
29800,2026-01-27 15:33:10,60.1303702,24.5155321,79.977,79.977,16.1022892,96.0792892,0,0.0466154,10.1312,11.034,29,99,14.301,96.2312892,80.129,3.85462,10.1312,0,0,0,171.2, 3.8, 0,0,0,1024,1024,1024,1024,0,0,0,0,171.05,-22.9,0,45,,,,,,,14.182,23.2,96.0792892,79.977,6,P-GPS,
30000,2026-01-27 15:33:10,60.1303703,24.5155321,79.977,79.977,16.1022892,96.0792892,0,0.0315753,10.1202,11.0451,29,99,14.193,96.2312892,80.129,3.85462,10.1312,0,0,0,180.2, 2.8, 0.5,0,0,1024,1024,1024,1024,0,0,0,0,179.69,-22.9,0,45,,,,,,,14.402,23.2,96.0792892,79.977,6,P-GPS,
30200,2026-01-27 15:33:10,60.1303704,24.5155317,79.978,79.978,16.1022892,96.0802892,0,0.0947629,10.1051,11.0699,31,99,14.193,96.2312892,80.129,3.85462,10.1312,0,0,0,189.2, 0.9, -0.6,0,0,1024,1024,1024,1024,0,0,0,0,188.71,-22.9,0,45,,,,,,,14.402,23.2,96.0802892,79.978,6,P-GPS,
30400,2026-01-27 15:33:10,60.1303706,24.5155315,79.978,79.978,16.1022892,96.0802892,0,0.0760592,10.0811,11.0948,31,99,14.193,96.2312892,80.129,3.85462,10.1312,0,0,0,195.7, 0.3, -2,0,0,1024,1024,1024,1024,0,0,0,0,195.4,-22.9,0,45,,,,,,,14.402,23.2,96.0802892,79.978,6,P-GPS,
30600,2026-01-27 15:33:11,60.1303707,24.5155316,79.98,79.98,16.1022892,96.0822892,0,0.0418688,10.0713,11.1072,31,99,14.193,96.2312892,80.129,3.85462,10.1312,0,0,0,199.9, 0.1, -1.3,0,0,1024,1024,1024,1024,0,0,0,0,199.69,-22.9,0,45,,,,,,,14.402,23.2,96.0822892,79.98,6,P-GPS,
30800,2026-01-27 15:33:11,60.1303707,24.515532,79.985,79.985,16.1022892,96.0872892,0,0.0778332,10.0755,11.1294,31,99,14.193,96.2312892,80.129,3.85462,10.1312,0,0,0,202.5, 0.1, 0.3,0,0,1024,1024,1024,1024,0,0,0,0,202.89,-22.9,0,45,,,,,,,14.402,23.2,96.0872892,79.985,6,P-GPS,
31000,2026-01-27 15:33:11,60.1303706,24.5155324,79.986,79.986,16.1022892,96.0882892,0,0.0920217,10.0907,11.1541,31,99,14.306,96.2312892,80.129,3.85462,10.1312,0,0,0,204.5, -0.5, 1.7,0,0,1024,1024,1024,1024,0,0,0,0,204.67,-22.9,0,45,,,,,,,14.26,23.3,96.0882892,79.986,6,P-GPS,
31200,2026-01-27 15:33:11,60.1303704,24.5155325,79.985,79.985,16.1022892,96.0872892,0,0.127393,10.1136,11.1771,31,99,14.306,96.2312892,80.129,3.85462,10.1312,0,0,0,205.6, -2.3, 1.8,0,0,1024,1024,1024,1024,0,0,0,0,205.86,-22.9,0,45,,,,,,,14.26,23.3,96.0872892,79.985,6,P-GPS,
31400,2026-01-27 15:33:11,60.13037,24.5155322,79.985,79.985,16.1022892,96.0872892,0,0.287684,10.1541,11.2245,31,99,14.306,96.2312892,80.129,3.85462,10.1541,0,0,0,206.4, -5.3, 2,0,0,1024,1024,1024,1024,0,0,0,0,206.59,-22.9,0,45,,,,,,,14.26,23.3,96.0872892,79.985,6,P-GPS,
31600,2026-01-27 15:33:12,60.1303693,24.5155314,79.983,79.983,16.1022892,96.0852892,0,0.567864,10.2221,11.3141,31,99,14.306,96.2312892,80.129,3.85462,10.2221,0,0,0,206.9, -8.6, 1.5,0,0,1024,1024,1024,1024,0,0,0,0,207.05,-22.9,0,45,,,,,,,14.26,23.3,96.0852892,79.983,6,P-GPS,
31800,2026-01-27 15:33:12,60.1303681,24.5155299,79.98,79.98,16.1022892,96.0822892,0,0.948873,10.3382,11.4713,31,99,14.306,96.2312892,80.129,3.85462,10.3382,-0.1,0,0,207.3, -11.3, 0.6,0,0,1024,1024,1024,1024,0,0,0,0,207.33,-22.9,0,45,,,,,,,14.26,23.3,96.0822892,79.98,6,P-GPS,
32000,2026-01-27 15:33:12,60.1303661,24.5155276,79.974,79.974,16.1022892,96.0762892,0,1.40866,10.5359,11.7276,31,99,14.462,96.2312892,80.129,3.85462,10.5359,-0.1,-0.1,0,207.4, -13.5, 0.5,0,0,1024,1024,1024,1024,0,0,0,0,207.49,-22.9,0,45,,,,,,,13.686,23.2,96.0762892,79.974,6,P-GPS,
32200,2026-01-27 15:33:12,60.1303632,24.5155245,79.966,79.966,16.1022892,96.0682892,0,1.93336,10.8287,12.093,31,99,14.462,96.2312892,80.129,3.85462,10.8287,-0.2,-0.1,0,207.6, -14.4, 0.6,0,0,1024,1024,1024,1024,0,0,0,0,207.58,-22.9,0,45,,,,,,,13.686,23.2,96.0682892,79.966,6,P-GPS,
32400,2026-01-27 15:33:12,60.1303595,24.5155206,79.959,79.959,16.1022892,96.0612892,0,2.46343,11.2088,12.5577,31,99,14.462,96.2312892,80.129,3.85462,11.2088,-0.2,-0.1,0,207.7, -14.5, 1.1,0,0,1024,1024,1024,1024,0,0,0,0,207.59,-22.9,0,45,,,,,,,13.686,23.2,96.0612892,79.959,6,P-GPS,
32600,2026-01-27 15:33:13,60.1303551,24.5155159,79.956,79.956,16.1022892,96.0582892,0,2.96625,11.6686,13.1119,31,99,14.462,96.2312892,80.129,3.85462,11.6686,-0.3,-0.1,0,207.7, -14.6, 1.1,0,0,1024,1024,1024,1024,0,0,0,0,207.59,-22.9,0,45,,,,,,,13.686,23.2,96.0582892,79.956,6,P-GPS,
32800,2026-01-27 15:33:13,60.1303501,24.5155105,79.961,79.961,16.1022892,96.0632892,0,3.43071,12.2003,13.7433,31,99,14.462,96.2312892,80.129,3.85462,12.2003,-0.3,-0.2,0,207.6, -15.5, 1.1,0,0,1024,1024,1024,1024,0,0,0,0,207.59,-22.9,0,45,,,,,,,13.686,23.2,96.0632892,79.961,6,P-GPS,
33000,2026-01-27 15:33:13,60.1303441,24.5155041,79.967,79.967,16.1022892,96.0692892,0,3.89896,12.8505,14.4988,31,99,14.303,96.2312892,80.129,3.89896,12.8505,-0.3,-0.2,0,207.6, -16.3, 0.9,0,0,1024,1024,1024,1024,0,0,0,0,207.59,-22.9,0,45,,,,,,,13.284,23.2,96.0692892,79.967,6,P-GPS,
33200,2026-01-27 15:33:13,60.1303374,24.515497,79.974,79.974,16.1022892,96.0762892,0,4.36602,13.5894,15.3413,31,99,14.303,96.2312892,80.129,4.36602,13.5894,-0.4,-0.2,0,207.7, -15, 0.9,0,0,1024,1024,1024,1024,0,0,0,0,207.59,-22.9,0,45,,,,,,,13.284,23.2,96.0762892,79.974,6,P-GPS,
33400,2026-01-27 15:33:13,60.13033,24.515489,79.98,79.98,16.1022892,96.0822892,0,4.76954,14.419,16.2759,31,99,14.303,96.2312892,80.129,4.76954,14.419,-0.4,-0.2,0,207.7, -11.7, 1.1,0,0,1024,1024,1024,1024,0,0,0,0,207.59,-22.91,0,45,,,,,,,13.284,23.2,96.0822892,79.98,6,P-GPS,
33600,2026-01-27 15:33:14,60.1303221,24.5154806,79.987,79.987,16.1022892,96.0892892,0,5.00753,15.3175,17.27,31,99,14.303,96.2312892,80.129,5.00753,15.3175,-0.4,-0.2,0,207.7, -8.1, 0.7,0,0,1024,1024,1024,1024,0,0,0,0,207.59,-22.9,0,45,,,,,,,13.284,23.2,96.0892892,79.987,6,P-GPS,
33800,2026-01-27 15:33:14,60.1303145,24.5154724,79.991,79.991,16.1022892,96.0932892,0,5.09795,16.193,18.2295,31,99,14.303,96.2312892,80.129,5.09795,16.193,-0.4,-0.2,0,207.7, -5.2, 0.1,0,0,1024,1024,1024,1024,0,0,0,0,207.59,-22.9,0,44,,,,,,,13.284,23.2,96.0932892,79.991,6,P-GPS,
34000,2026-01-27 15:33:14,60.1303063,24.5154637,79.987,79.987,16.1022892,96.0892892,0,5.13398,17.1468,19.2608,31,99,14.175,96.2312892,80.129,5.13398,17.1468,-0.5,-0.2,0,207.6, -4.1, -0.1,0,0,1024,1024,1024,1024,0,0,0,0,207.61,-22.9,0,44,,,,,,,14.434,23.2,96.0892892,79.987,6,P-GPS,
34200,2026-01-27 15:33:14,60.130298,24.5154549,79.98,79.98,16.1022892,96.0822892,0,5.12862,18.1208,20.3046,31,99,14.175,96.2312892,80.129,5.13398,18.1208,-0.5,-0.2,0,207.7, -3.2, 0.1,0,0,1024,1024,1024,1024,0,0,0,0,207.64,-22.89,0,44,,,,,,,14.434,23.2,96.0822892,79.98,6,P-GPS,
34400,2026-01-27 15:33:14,60.1302898,24.5154462,79.976,79.976,16.1022892,96.0782892,0,5.11986,19.0904,21.336,31,99,14.175,96.2312892,80.129,5.13398,19.0904,-0.5,-0.2,0,207.7, -2.7, 0.1,0,0,1024,1024,1024,1024,0,0,0,0,207.64,-22.9,0,44,,,,,,,14.434,23.2,96.0782892,79.976,6,P-GPS,
34600,2026-01-27 15:33:15,60.1302816,24.5154378,79.975,79.975,16.1022892,96.0772892,0,5.10341,20.0635,22.3597,31,99,14.175,96.2312892,80.129,5.13398,20.0635,-0.5,-0.2,0,207.7, -2, 0.3,0,0,1024,1024,1024,1024,0,0,0,0,207.64,-22.9,0,44,,,,,,,14.434,23.2,96.0772892,79.975,6,P-GPS,
34800,2026-01-27 15:33:15,60.1302739,24.5154297,79.977,79.947,16.1322892,96.0792892,0,5.06114,20.9837,23.3264,31,99,14.175,96.2312892,80.129,5.13398,20.9837,-0.4,-0.2,0,207.5, -1.8, -0.2,0,0,1024,1024,1024,1024,0,0,0,0,207.64,-22.9,0,44,,,,,,,14.434,23.2,96.0792892,79.977,6,P-GPS,
35000,2026-01-27 15:33:15,60.1302657,24.515421,79.978,79.888,16.1922892,96.0802892,0,5.05633,21.9688,24.3577,31,99,14.371,96.2312892,80.129,5.13398,21.9688,-0.4,-0.2,0,207.6, -2.5, -0.4,0,0,1024,1024,1024,1024,0,0,0,0,207.68,-22.9,0,44,,,,,,,12.984,23.2,96.0802892,79.978,6,P-GPS,
35200,2026-01-27 15:33:15,60.1302576,24.5154125,79.977,79.837,16.2422892,96.0792892,0,5.03882,22.9448,25.3741,31,99,14.371,96.2312892,80.129,5.13398,22.9448,-0.4,-0.2,0,207.7, -2.8, -0.4,0,0,1024,1024,1024,1024,0,0,0,0,207.69,-22.9,0,44,,,,,,,12.984,23.2,96.0792892,79.977,6,P-GPS,
35400,2026-01-27 15:33:15,60.1302496,24.5154041,79.981,79.791,16.2922892,96.0832892,0,5.01541,23.9122,26.3781,31,99,14.371,96.2312892,80.129,5.13398,23.9122,-0.4,-0.2,0,207.8, -2.8, -0.5,0,0,1024,1024,1024,1024,0,0,0,0,207.68,-22.9,0,44,,,,,,,12.984,23.2,96.0832892,79.981,6,P-GPS,
35600,2026-01-27 15:33:16,60.1302416,24.5153959,79.983,79.743,16.3422892,96.0852892,0,4.99485,24.8799,27.3769,31,99,14.371,96.2312892,80.129,5.13398,24.8799,-0.4,-0.2,0,207.7, -3, 0.2,0,0,1024,1024,1024,1024,0,0,0,0,207.64,-22.9,0,44,,,,,,,12.984,23.2,96.0852892,79.983,6,P-GPS,
35800,2026-01-27 15:33:16,60.130234,24.515388,79.984,79.704,16.3822892,96.0862892,0,4.98324,25.8029,28.3286,31,99,14.371,96.2312892,80.129,5.13398,25.8029,-0.4,-0.2,0,207.6, -3.2, 0.8,0,0,1024,1024,1024,1024,0,0,0,0,207.63,-22.9,0,44,,,,,,,12.984,23.2,96.0862892,79.984,6,P-GPS,
36000,2026-01-27 15:33:16,60.1302259,24.5153796,79.983,79.663,16.4222892,96.0852892,0,4.99869,26.7885,29.3424,31,99,14.509,96.2312892,80.129,5.13398,26.7885,-0.4,-0.2,0,207.6, -3.8, 0.5,0,0,1024,1024,1024,1024,0,0,0,0,207.63,-22.9,0,44,,,,,,,12.972,23.3,96.0852892,79.983,6,P-GPS,
36200,2026-01-27 15:33:16,60.1302177,24.5153711,79.982,79.622,16.4622892,96.0842892,0,5.03296,27.7884,30.3687,31,99,14.509,96.2312892,80.129,5.13398,27.7884,-0.4,-0.2,0,207.7, -3.7, 0.2,0,0,1024,1024,1024,1024,0,0,0,0,207.63,-22.9,0,44,,,,,,,12.972,23.3,96.0842892,79.982,6,P-GPS,
36400,2026-01-27 15:33:16,60.1302097,24.5153625,79.98,79.59,16.4922892,96.0822892,0,5.0663,28.77,31.3778,31,99,14.509,96.2312892,80.129,5.13398,28.77,-0.4,-0.2,0,207.6, -3.9, 0,0,0,1024,1024,1024,1024,0,0,0,0,207.63,-22.9,0,44,,,,,,,12.972,23.3,96.0822892,79.98,6,P-GPS,
36600,2026-01-27 15:33:17,60.1301996,24.5153519,79.981,79.551,16.5322892,96.0832892,0,5.09447,30.0081,32.6452,31,99,14.509,96.2312892,80.129,5.13398,30.0081,-0.5,-0.2,0,207.6, -3.3, -0.1,0,0,1024,1024,1024,1024,0,0,0,0,207.63,-22.9,0,44,,,,,,,12.972,23.3,96.0832892,79.981,6,P-GPS,
36800,2026-01-27 15:33:17,60.1301919,24.5153438,79.983,79.523,16.5622892,96.0852892,0,5.07674,30.9539,33.6119,31,99,14.509,96.2312892,80.129,5.13398,30.9539,-0.4,-0.2,0,207.6, -1, -0.3,0,0,1024,1024,1024,1024,0,0,0,0,207.65,-22.89,0,44,,,,,,,12.972,23.3,96.0852892,79.983,6,P-GPS,
37000,2026-01-27 15:33:17,60.1301838,24.5153352,79.983,79.503,16.5822892,96.0852892,0,4.95661,31.9514,34.6308,31,99,14.136,96.2312892,80.129,5.13398,31.9514,-0.4,-0.2,0,207.7, 4.1, -0.2,0,0,1024,1024,1024,1024,0,0,0,0,207.69,-22.9,0,44,,,,,,,12.932,23.3,96.0852892,79.983,6,P-GPS,
37200,2026-01-27 15:33:17,60.1301763,24.5153274,79.983,79.483,16.6022892,96.0852892,0,4.64976,32.8736,35.5701,31,99,14.136,96.2312892,80.129,5.13398,32.8736,-0.4,-0.2,0,207.8, 10.2, 0.1,0,0,1024,1024,1024,1024,0,0,0,0,207.73,-22.9,0,44,,,,,,,12.932,23.3,96.0852892,79.983,6,P-GPS,
37400,2026-01-27 15:33:17,60.1301712,24.515322,79.981,79.471,16.6122892,96.0832892,0,4.16305,33.5027,36.2113,31,99,14.136,96.2312892,80.129,5.13398,33.5027,-0.4,-0.2,0,207.8, 14.3, 0.6,0,0,1024,1024,1024,1024,0,0,0,0,207.74,-22.9,0,44,,,,,,,12.932,23.3,96.0832892,79.981,6,P-GPS,
37600,2026-01-27 15:33:18,60.1301639,24.5153144,79.977,79.457,16.6222892,96.0792892,0,3.55814,34.402,37.1257,31,99,14.136,96.2312892,80.129,5.13398,34.402,-0.3,-0.2,0,207.7, 17.7, 1.2,0,0,1024,1024,1024,1024,0,0,0,0,207.75,-22.9,0,44,,,,,,,12.932,23.3,96.0792892,79.977,6,P-GPS,
37800,2026-01-27 15:33:18,60.1301594,24.5153095,79.959,79.429,16.6322892,96.0612892,0,2.97701,34.9602,37.695,31,99,14.136,96.2312892,80.129,5.13398,34.9602,-0.3,-0.1,0,207.7, 21.8, 0.5,0,0,1024,1024,1024,1024,0,0,0,0,207.75,-22.9,0,44,,,,,,,12.932,23.3,96.0612892,79.959,6,P-GPS,
38000,2026-01-27 15:33:18,60.1301555,24.5153052,79.869,79.349,16.6222892,95.9712892,0,2.32834,35.4452,38.1898,31,99,14.293,96.2312892,80.129,5.13398,35.4452,-0.2,-0.1,-0.1,207.6, 24.9, -0.9,0,0,1024,1024,1024,1024,0,0,0,0,207.79,-22.89,0,44,,,,,,,12.968,23.2,95.9712892,79.869,6,P-GPS,
38200,2026-01-27 15:33:18,60.1301526,24.5153022,79.658,79.128,16.6322892,95.7602892,0,1.72522,35.8027,38.5525,30,99,14.293,96.2312892,80.129,5.13398,35.8027,-0.2,-0.1,-0.2,207.2, 26.5, -0.8,0,0,1024,1024,1024,1024,0,0,0,0,207.85,-22.9,0,44,,,,,,,12.968,23.2,95.7602892,79.658,6,P-GPS,
38400,2026-01-27 15:33:18,60.1301507,24.5153002,79.322,78.792,16.6322892,95.4242892,0,1.10657,36.0376,38.7911,30,99,14.293,96.2312892,80.129,5.13398,36.0376,-0.1,-0.1,-0.2,207.5, 24.7, 0.6,0,0,1024,1024,1024,1024,0,0,0,0,207.92,-22.9,0,44,,,,,,,12.968,23.2,95.4242892,79.322,6,P-GPS,
38600,2026-01-27 15:33:19,60.1301498,24.515299,78.879,78.349,16.6322892,94.9812892,0,0.584398,36.1531,38.9113,30,99,14.293,96.2312892,80.129,5.13398,36.1531,0,0,-0.3,208.4, 20.6, -0.6,0,0,1024,1024,1024,1024,0,0,0,0,207.93,-22.9,0,44,,,,,,,12.968,23.2,94.9812892,78.879,6,P-GPS,
38800,2026-01-27 15:33:19,60.1301496,24.5152986,78.333,77.803,16.6322892,94.4352892,0,0.128818,36.181,38.9426,30,99,14.293,96.2312892,80.129,5.13398,36.181,0,0,-0.3,208.3, 14.6, -1.6,0,0,1024,1024,1024,1024,0,0,0,0,207.66,-22.9,0,44,,,,,,,12.968,23.2,94.4352892,78.333,6,P-GPS,
39000,2026-01-27 15:33:19,60.1301498,24.5152986,77.695,77.165,16.6322892,93.7972892,0,0.138452,36.1598,38.9649,30,99,14.586,96.2312892,80.129,5.13398,36.181,0,0,-0.4,207.3, 6.6, -2,0,0,1024,1024,1024,1024,0,0,0,0,207.34,-22.9,0,44,,,,,,,12.968,23.2,93.7972892,77.695,6,P-GPS,
39200,2026-01-27 15:33:19,60.1301502,24.515299,76.96,76.43,16.6322892,93.0622892,0,0.208387,36.1107,39.0146,30,99,14.586,96.2312892,80.129,5.13398,36.181,0,0,-0.4,207.2, -2.6, -2.6,0,0,1024,1024,1024,1024,0,0,0,0,207.07,-22.89,0,44,,,,,,,12.968,23.2,93.0622892,76.96,6,P-GPS,
39400,2026-01-27 15:33:19,60.1301504,24.5152993,76.147,75.617,16.6322892,92.2492892,0,0.123762,36.0845,39.0423,30,99,14.586,96.2312892,80.129,5.13398,36.181,0,0,-0.4,206.9, -8.2, -1.1,0,0,1024,1024,1024,1024,0,0,0,0,206.85,-22.89,0,44,,,,,,,12.968,23.2,92.2492892,76.147,6,P-GPS,
39600,2026-01-27 15:33:20,60.1301502,24.5152993,75.271,74.741,16.6322892,91.3732892,0,0.121066,36.1057,39.0646,30,99,14.586,96.2312892,80.129,5.13398,36.181,0,0,-0.5,206.7, -11.3, -0.8,0,0,1024,1024,1024,1024,0,0,0,0,206.8,-22.89,0,44,,,,,,,12.968,23.2,91.3732892,75.271,6,P-GPS,
39800,2026-01-27 15:33:20,60.1301495,24.5152989,74.344,73.814,16.6322892,90.4462892,0,0.411005,36.1866,39.1455,31,99,14.586,96.2312892,80.129,5.13398,36.1866,0,0,-0.5,206.8, -11, -0.8,0,0,1024,1024,1024,1024,0,0,0,0,206.77,-22.9,0,44,,,,,,,12.968,23.2,90.4462892,74.344,6,P-GPS,
40000,2026-01-27 15:33:20,60.1301484,24.515298,73.378,72.838,16.6422892,89.4802892,0,0.69092,36.3183,39.2776,31,99,14.584,96.2312892,80.129,5.13398,36.3183,-0.1,0,-0.5,206.8, -8, 0.1,0,0,1024,1024,1024,1024,0,0,0,0,206.88,-22.9,0,44,,,,,,,8.496,23.3,89.4802892,73.378,6,P-GPS,
40200,2026-01-27 15:33:20,60.1301469,24.5152968,72.387,71.847,16.6422892,88.4892892,0,0.862021,36.4974,39.4572,31,99,14.584,96.2312892,80.129,5.13398,36.4974,-0.1,0,-0.5,207.1, -3.1, 0.6,0,0,1024,1024,1024,1024,0,0,0,0,207.14,-22.9,0,44,,,,,,,8.496,23.3,88.4892892,72.387,6,P-GPS,
40400,2026-01-27 15:33:20,60.1301453,24.5152954,71.399,70.859,16.6422892,87.5012892,0,0.920811,36.6905,39.6513,31,99,14.584,96.2312892,80.129,5.13398,36.6905,-0.1,0,-0.5,207.7, 0.6, 1.6,0,0,1024,1024,1024,1024,0,0,0,0,207.48,-22.9,0,44,,,,,,,8.496,23.3,87.5012892,71.399,6,P-GPS,
40600,2026-01-27 15:33:21,60.130144,24.5152941,70.432,69.892,16.6422892,86.5342892,0,0.833764,36.8501,39.8128,31,99,14.584,96.2312892,80.129,5.13398,36.8501,-0.1,0,-0.5,207.6, 3, 1.1,0,0,1024,1024,1024,1024,0,0,0,0,207.84,-22.89,0,44,,,,,,,8.496,23.3,86.5342892,70.432,6,P-GPS,
40800,2026-01-27 15:33:21,60.1301431,24.5152929,69.518,68.978,16.6422892,85.6202892,0,0.651556,36.9657,39.9329,31,99,14.584,96.2312892,80.129,5.13398,36.9657,-0.1,0,-0.4,208, 3.5, 0.3,0,0,1024,1024,1024,1024,0,0,0,0,208.07,-22.9,0,44,,,,,,,8.496,23.3,85.6202892,69.518,6,P-GPS,
41000,2026-01-27 15:33:21,60.1301424,24.5152918,68.657,68.117,16.6422892,84.7592892,0,0.508702,37.0584,40.0318,31,99,14.565,96.2312892,80.129,5.13398,37.0584,0,0,-0.4,208.4, 1, 0.4,0,0,1024,1024,1024,1024,0,0,0,0,208,-22.9,0,44,,,,,,,8.294,23.3,84.7592892,68.657,6,P-GPS,
41200,2026-01-27 15:33:21,60.1301418,24.5152907,67.862,67.322,16.6422892,83.9642892,0,0.467488,37.1406,40.1221,31,99,14.565,96.2312892,80.129,5.13398,37.1406,0,0,-0.4,207.5, -1.3, -2.6,0,0,1024,1024,1024,1024,0,0,0,0,207.87,-22.9,0,44,,,,,,,8.294,23.3,83.9642892,67.862,6,P-GPS,
41400,2026-01-27 15:33:21,60.1301413,24.5152898,67.139,66.599,16.6422892,83.2412892,0,0.407404,37.2089,40.1968,31,99,14.565,96.2312892,80.129,5.13398,37.2089,0,0,-0.3,208.1, 0.7, -1.7,0,0,1024,1024,1024,1024,0,0,0,0,207.82,-22.9,0,44,,,,,,,8.294,23.3,83.2412892,67.139,6,P-GPS,
41600,2026-01-27 15:33:22,60.1301407,24.515289,66.501,65.971,16.6322892,82.6032892,0,0.391879,37.286,40.2769,31,99,14.565,96.2312892,80.129,5.13398,37.286,0,0,-0.3,208.1, -1.1, -3.9,0,0,1024,1024,1024,1024,0,0,0,0,207.69,-22.89,0,44,,,,,,,8.294,23.3,82.6032892,66.501,6,P-GPS,
41800,2026-01-27 15:33:22,60.1301401,24.5152886,65.94,65.4,16.6422892,82.0422892,0,0.380926,37.3563,40.3472,31,99,14.565,96.2312892,80.129,5.13398,37.3563,0,0,-0.3,206.9, -0.4, -1.8,0,0,1024,1024,1024,1024,0,0,0,0,207.65,-22.89,0,44,,,,,,,8.294,23.3,82.0422892,65.94,6,P-GPS,
42000,2026-01-27 15:33:22,60.1301394,24.5152883,65.433,64.893,16.6422892,81.5352892,0,0.372871,37.4355,40.4268,31,99,14.04,96.2312892,80.129,5.13398,37.4355,0,0,-0.2,207.1, -1.1, 0.5,0,0,1024,1024,1024,1024,0,0,0,0,207.71,-22.9,0,44,,,,,,,14.096,23.2,81.5352892,65.433,6,P-GPS,
